time,sec,nsecs,x_curr,y_curr,z_curr,x_dot_curr,y_dot_curr,z_dot_curr,x_ddot_curr,y_ddot_curr,z_ddot_curr,roll_curr,pitch_curr,yaw_curr,roll_dot_curr,pitch_dot_curr,yaw_dot_curr,ex,ey,ez,ex_dot,ey_dot,ez_dot,ex_ddot,ey_ddot,ez_ddot,roll_err,pitch_err,yaw_err,tau_x,tau_y,tau_z,collective_thrust
1970/01/01 05:40:53.540584128,0,653533650,0.4102834463119507,-0.49679309129714966,0.9725074768066406,-0.1339072734117508,-0.16233429312705994,0.006584317423403263,0.06066864728927612,0.7180706262588501,9.539965629577637,0.01467637350327003,-0.00020677549911862558,-1.7708092121473409,0.0,0.0,0.0,0.02340571579747336,0.08216832662637563,0.027492523193359375,-0.07343946313481003,-0.05454710781131322,-0.006584317423403263,-0.16912475120647252,-0.6143812617007505,-9.539965629577637,-0.01467637350327003,0.00020677549911862558,1.7708092121473409,-0.08553015713418431,0.11576579903436514,9.656498330547098,0.0
1970/01/01 05:40:53.571006240,0,653553611,0.4065795838832855,-0.500451922416687,0.9726484417915344,-0.15063641965389252,-0.1669171303510666,-0.0041780355386435986,0.47944146394729614,-0.4059273898601532,10.183501243591309,0.014212254186492891,2.6731286201084298e-05,-1.7724726982562014,0.0,0.0,0.0,0.020138081329781565,0.0786557231910881,0.027351558208465576,-0.060297199263169426,-0.04647736028844596,0.0041780355386435986,-0.5861856763874775,0.5114402161184046,-10.183501243591309,-0.014212254186492891,-2.6731286201084298e-05,1.7724726982562014,-0.2574335473859658,0.17895985499920655,10.101090822081176,0.0
1970/01/01 05:40:53.600762496,0,653583646,0.4010467231273651,-0.5059036016464233,0.9723325967788696,-0.19391173124313354,-0.15262272953987122,-0.005903977435082197,-0.32289326190948486,-0.4106532037258148,9.279865264892578,0.015116766282523227,0.0007032710707250766,-1.7729312215587605,0.0,0.0,0.0,0.018580854401957114,0.07705319066522492,0.02766740322113037,-0.02054985225243991,-0.057225894289369306,0.005903977435082197,0.21795959963897474,0.5178923860838862,-9.279865264892578,-0.015116766282523227,-0.0007032710707250766,1.7729312215587605,-0.08925235595816818,0.1453032042159696,10.12002493065144,0.0
1970/01/01 05:40:53.630400032,0,653623678,0.3935967683792114,-0.5130038857460022,0.9714200496673584,-0.18008935451507568,-0.17372503876686096,-0.011617843993008137,-1.2670371532440186,0.5171963572502136,9.237357139587402,0.014426786901245048,-0.00013300776520845902,-1.7773026975893291,0.0,0.0,0.0,0.018824128508287685,0.07721841765626869,0.0285799503326416,-0.03783984188668693,-0.03252017304878019,0.011617843993008137,1.1639140411431796,-0.40823081879232226,-9.237357139587402,-0.014426786901245048,0.00013300776520845902,1.7773026975893291,-0.21932136511119157,0.22763424008190153,10.50060640636981,0.0
1970/01/01 05:40:53.660786496,0,653643687,0.39002758264541626,-0.5162596106529236,0.9706737399101257,-0.18511085212230682,-0.14939287304878235,-0.017894722521305084,-0.8010798096656799,-0.6025457978248596,9.862678527832031,0.014387551927538655,-0.0007441179582244229,-1.7764874259065746,0.0,0.0,0.0,0.015072052364592137,0.07366015827516387,0.029326260089874268,-0.036225605513322545,-0.05319138154993211,0.017894722521305084,0.6997672477345124,0.7132376923825708,-9.862678527832031,-0.014387551927538655,0.0007441179582244229,1.7764874259065746,-0.15080546200774875,0.15156304369579818,10.246295109155666,0.0
1970/01/01 05:40:53.690997984,0,653673572,0.384911447763443,-0.5209060311317444,0.9696752429008484,-0.19125871360301971,-0.16192418336868286,-0.04743644967675209,1.1982762813568115,-0.4824827313423157,9.146679878234863,0.015460931664155624,-0.0006573540631990024,-1.7836998535736153,0.0,0.0,0.0,0.020188187246565403,0.07830657875398467,0.03032475709915161,-0.030077744032609655,-0.0406600712300316,0.04743644967675209,-1.299588843287979,0.5931746259000269,-9.146679878234863,-0.015460931664155624,0.0006573540631990024,1.7836998535736153,-0.14601913682681242,0.20366465189551647,10.527929510919542,0.0
1970/01/01 05:40:53.720657056,0,653713508,0.37800827622413635,-0.5267990231513977,0.968517005443573,-0.18333011865615845,-0.13115669786930084,-0.049079038202762604,-0.579659640789032,0.059850092977285385,9.21286392211914,0.016258069898748083,-0.0018097358389792615,-1.7838034686672843,0.0,0.0,0.0,0.01965752804118026,0.07750857675745199,0.031482994556427,-0.04135306719103282,-0.06770925700858735,0.049079038202762604,0.48019156605172925,0.05253022541639951,-9.21286392211914,-0.016258069898748083,0.0018097358389792615,1.7838034686672843,-0.2664098449685242,0.13566599517088926,10.401794340843562,0.0
1970/01/01 05:40:53.750288896,0,653733569,0.3745473027229309,-0.5296919941902161,0.9680120348930359,-0.21087685227394104,-0.1488485187292099,-0.028499452397227287,0.04413139447569847,-1.1431944370269775,10.627132415771484,0.018511604684730745,-0.002709863764377909,-1.785064223902321,0.0,0.0,0.0,0.015574156860998833,0.07383541393059617,0.03198796510696411,-0.017089996110876776,-0.046244624732255935,0.028499452397227287,-0.14168307199599084,1.2571828036186365,-10.627132415771484,-0.018511604684730745,0.002709863764377909,1.785064223902321,-0.11062778279322392,0.17380722717450942,10.369454451280447,0.0
1970/01/01 05:40:53.780545280,0,653763548,0.3692779839038849,-0.5338199734687805,0.9671308398246765,-0.1567162573337555,-0.14843030273914337,-0.039033737033605576,-0.4616333842277527,1.3358564376831055,8.978596687316895,0.019116687857089476,-0.002845433189359365,-1.787897754284272,0.0,0.0,0.0,0.013190740245857424,0.07152391308414363,0.032869160175323486,-0.07447037368145532,-0.04283642769930082,0.039033737033605576,0.3659981039244708,-1.2202600228934724,-8.978596687316895,-0.019116687857089476,0.002845433189359365,1.787897754284272,-0.31685103715401647,0.18040762529993126,10.474857626881187,0.0
1970/01/01 05:40:53.810754496,0,653803625,0.3617737889289856,-0.5394779443740845,0.9661775231361389,-0.1518476903438568,-0.12638309597969055,-0.03641993924975395,0.6210547685623169,-1.0955218076705933,10.5248441696167,0.01943707868415659,-0.00266672241852251,-1.792055525614107,0.0,0.0,0.0,0.012935938364010302,0.07087084432530816,0.033822476863861084,-0.08249484339451321,-0.06100361982913299,0.03641993924975395,-0.7147736516485884,1.2127262706582003,-10.5248441696167,-0.01943707868415659,0.00266672241852251,1.792055525614107,-0.3438062119320497,0.11642150713587443,10.459958406340311,0.0
1970/01/01 05:40:53.840719264,0,653823446,0.3574402332305908,-0.5426339507102966,0.9657911062240601,-0.1780880093574524,-0.15844368934631348,0.0025625256821513176,-0.8469720482826233,0.2653006613254547,8.510224342346191,0.018526525742273314,-0.004342986884822993,-1.7921945668028563,0.0,0.0,0.0,0.009406367570597318,0.06784603505382203,0.03420889377593994,-0.05934611632697312,-0.025009958121900183,-0.0025625256821513176,0.75521992992032,-0.14655219763510835,-8.510224342346191,-0.018526525742273314,0.004342986884822993,1.7921945668028563,-0.2713415013429508,0.23491644193441824,10.104912740284755,0.0
1970/01/01 05:40:53.870359136,0,653853436,0.35085147619247437,-0.5472399592399597,0.9650987386703491,-0.19545873999595642,-0.11251702159643173,-0.026059774681925774,0.18463678658008575,1.0736165046691895,10.38803482055664,0.01775962601344612,-0.0027255226143133382,-1.7943356634190664,0.0,0.0,0.0,0.008030053414144422,0.0664031680486789,0.03490126132965088,-0.04500021417372754,-0.06695362266121077,0.026059774681925774,-0.2743743773332912,-0.9533847757252644,-10.38803482055664,-0.01775962601344612,0.0027255226143133382,1.7943356634190664,-0.22323964618831155,0.08519417608868594,10.374990605018061,0.0
1970/01/01 05:40:53.900696448,0,653893417,0.3415621817111969,-0.5534956455230713,0.9641060829162598,-0.17668750882148743,-0.13699260354042053,-0.008097119629383087,-0.11980945616960526,-0.8111534714698792,10.134652137756348,0.01933204790333491,-0.003820106830841276,-1.7943455207523606,0.0,0.0,0.0,0.017319347895421888,0.07265885433179048,0.035893917083740234,-0.06377144534819654,-0.04247804071722197,0.008097119629383087,0.030071865416399862,0.9313852004138042,-10.134652137756348,-0.01933204790333491,0.003820106830841276,1.7943455207523606,-0.26107826074346036,0.18970877060467048,10.219208680480058,0.0
1970/01/01 05:40:53.930300416,0,653913649,0.3365439772605896,-0.5567691326141357,0.9636437296867371,-0.23812736570835114,-0.13496844470500946,-0.0010832393309101462,0.546603262424469,-2.0283362865448,10.373086929321289,0.021329889765011933,-0.0018719222153054556,-1.7975658006122837,0.0,0.0,0.0,0.014272772717289717,0.07001705669798636,0.03635627031326294,-0.005289266026288042,-0.04046975416694257,0.0010832393309101462,-0.6343263255685765,2.1500512807423036,-10.373086929321289,-0.021329889765011933,0.0018719222153054556,1.7975658006122837,-0.06337392163880196,0.1902952471135613,10.159105969067616,0.0
1970/01/01 05:40:53.960517472,0,653943445,0.32907700538635254,-0.5615105032920837,0.9632372260093689,-0.16892166435718536,-0.13619999587535858,-0.03872939199209213,0.10923265665769577,-1.35194730758667,10.773584365844727,0.023304122407011543,-0.0018769718551761088,-1.7988959960467041,0.0,0.0,0.0,0.013577494892627051,0.0689783815335075,0.036762773990631104,-0.07738549402210576,-0.03515631543578368,0.03872939199209213,-0.1949411921927054,1.4751455670377525,-10.773584365844727,-0.023304122407011543,0.0018769718551761088,1.7988959960467041,-0.31625370856085727,0.2075995740010174,10.509855511483565,0.0
1970/01/01 05:40:53.991649088,0,653983482,0.3186129033565521,-0.5678691267967224,0.9623644351959229,-0.22133319079875946,-0.12020543217658997,-0.0074927471578121185,0.4609038233757019,0.7691283822059631,9.227617263793945,0.024974381653117286,-0.002228514273269908,-1.7998291617224096,0.0,0.0,0.0,0.01578412138150659,0.06969383763278908,0.03763556480407715,-0.02779659566750181,-0.04702063537109144,0.0074927471578121185,-0.5445342854423645,-0.6445391603416801,-9.227617263793945,-0.024974381653117286,0.002228514273269908,1.7998291617224096,-0.08586537844116146,0.2035045492504172,10.113056487017118,0.0
1970/01/01 05:40:54.20540544,0,654013649,0.31082242727279663,-0.572516143321991,0.9616981148719788,-0.19746622443199158,-0.1436084508895874,-0.015695787966251373,-0.6328065991401672,-0.5507964491844177,9.977534294128418,0.02513622671962155,-0.003029647261376513,-1.8061060354279914,0.0,0.0,0.0,0.015224199612684786,0.06883611860560102,0.03830188512802124,-0.05441616833299928,-0.019442100767225773,0.015695787966251373,0.5512806832830528,0.676738180772229,-9.977534294128418,-0.02513622671962155,0.003029647261376513,1.8061060354279914,-0.27910528517049066,0.1723127629430094,10.603814315760369,0.0
1970/01/01 05:40:54.50382112,0,654033621,0.3056555390357971,-0.575538158416748,0.9612947106361389,-0.1904483586549759,-0.13776259124279022,0.005902067292481661,-0.30838918685913086,0.8765313029289246,10.573946952819824,0.02296199925354452,-0.006397023188853579,-1.8031144330138984,0.0,0.0,0.0,0.011950105646154452,0.0664933334052209,0.038705289363861084,-0.06411648886842641,-0.021067360865703683,-0.005902067292481661,0.2289678172115646,-0.7492370616175847,-10.573946952819824,-0.02296199925354452,0.006397023188853579,1.8031144330138984,-0.24328405661951658,0.2770976472586924,10.173865146901553,0.0
1970/01/01 05:40:54.80448672,0,654063643,0.29730212688446045,-0.5802469253540039,0.9607254862785339,-0.2504741847515106,-0.11945390701293945,0.0021431208588182926,-0.9180856347084045,1.0829219818115234,9.441953659057617,0.020884955877769337,-0.004121206725259145,-1.809053002737841,0.0,0.0,0.0,0.011774289627686396,0.0659787380932414,0.039274513721466064,-0.006702965989984766,-0.035110361889784336,-0.0021431208588182926,0.8407688112703864,-0.9542752307766553,-9.441953659057617,-0.020884955877769337,0.004121206725259145,1.809053002737841,-0.03275531604041337,0.20327062035011204,10.157442873428286,0.0
1970/01/01 05:40:54.113594496,0,654103391,0.2857435345649719,-0.5864803791046143,0.9597808122634888,-0.22428709268569946,-0.13605260848999023,-0.02965305931866169,0.10115387290716171,0.8709860444068909,9.01215934753418,0.021120414210732942,-0.005363157583766755,-1.809572321121766,0.0,0.0,0.0,0.014717757151764488,0.06713175212956046,0.04021918773651123,-0.035431112387377006,-0.014202726421366385,0.02965305931866169,-0.17629287707114408,-0.7411091699458334,-9.01215934753418,-0.021120414210732942,0.005363157583766755,1.809572321121766,-0.2362709772859315,0.2447793392938794,10.464008846002342,0.0
1970/01/01 05:40:54.140351072,0,654123418,0.2799525260925293,-0.5895333290100098,0.9592936635017395,-0.2780139744281769,-0.12537781894207,-0.002268725773319602,0.1728181540966034,-1.4406113624572754,10.117300987243652,0.021967004040000872,-0.005354184161923122,-1.808314115768376,0.0,0.0,0.0,0.020508765624207115,0.07018470203495597,0.0407063364982605,0.01829576935510041,-0.024877515969286612,0.002268725773319602,-0.24795715826058576,1.5704882369183328,-10.117300987243652,-0.021967004040000872,0.005354184161923122,1.808314115768376,0.05055023426413781,0.25356903406947406,10.211786213785212,0.0
1970/01/01 05:40:54.170649088,0,654153429,0.27120116353034973,-0.5941129326820374,0.9587097764015198,-0.21203622221946716,-0.12881112098693848,-0.052217256277799606,-0.9570770859718323,-0.2879430651664734,10.047138214111328,0.02136893647243688,-0.005336213104796842,-1.814611808818969,0.0,0.0,0.0,0.020561515624331117,0.0698281736046601,0.041290223598480225,-0.0501501814833224,-0.017094712973813625,0.052217256277799606,0.8841241723530305,0.4190362477416868,-10.047138214111328,-0.02136893647243688,0.005336213104796842,1.814611808818969,-0.1868716659174435,0.2810987607978048,10.677187143527801,0.0
1970/01/01 05:40:54.201914016,0,654193377,0.25928807258605957,-0.6000744700431824,0.9578701257705688,-0.22363083064556122,-0.08823086321353912,-0.020186586305499077,1.8846698999404907,-0.3119797110557556,9.967351913452148,0.01795458128779529,-0.006625247227022992,-1.8140479353713994,0.0,0.0,0.0,0.023694935213655843,0.07099923795523189,0.04212987422943115,-0.04095090200210205,-0.053284926192803284,0.020186586305499077,-1.9554367230141119,0.4442892017451251,-9.967351913452148,-0.01795458128779529,0.006625247227022992,1.8140479353713994,-0.11565239873665033,0.330799042979019,10.265975562746656,0.0
1970/01/01 05:40:54.231259552,0,654223405,0.2504250109195709,-0.6043821573257446,0.9573122262954712,-0.22064146399497986,-0.120489701628685,-0.011642517521977425,-0.12306079268455505,-0.8141793608665466,9.58719253540039,0.019608451828714395,-0.011555760305015067,-1.8161481595666646,0.0,0.0,0.0,0.02369969573198727,0.07066346275260094,0.04268777370452881,-0.046262717825614585,-0.016595519185692825,0.011642517521977425,0.05448669530450659,0.9476922892777752,-9.58719253540039,-0.019608451828714395,0.011555760305015067,1.8161481595666646,-0.058812188372743504,0.29671134007203914,10.22166171567624,0.0
1970/01/01 05:40:54.260487840,0,654243434,0.2445327788591385,-0.6071560382843018,0.957209587097168,-0.20379696786403656,-0.1122424453496933,-0.00837889313697815,0.3136270344257355,-1.072016954421997,10.173284530639648,0.016199003807898897,-0.012316556981957674,-1.8185650155179778,0.0,0.0,0.0,0.02065744331323799,0.06894220931254824,0.04279041290283203,-0.06535536999813002,-0.02037442436995482,0.00837889313697815,-0.3799422995400137,1.2066050916945514,-10.173284530639648,-0.016199003807898897,0.012316556981957674,1.8185650155179778,-0.30235300252161457,0.2567142624252045,10.20545086754038,0.0
1970/01/01 05:40:54.290429184,0,654273872,0.2357439547777176,-0.6111164093017578,0.9570936560630798,-0.25308388471603394,-0.0948314219713211,0.012094663456082344,0.553871750831604,-1.0441763401031494,10.634284019470215,0.01679411990002094,-0.013969111079345444,-1.8197626977192496,0.0,0.0,0.0,0.020438099287572176,0.06855698830614176,0.042906343936920166,-0.018241314778845774,-0.03328125635821966,-0.012094663456082344,-0.6179281836801119,1.1798396862370295,-10.634284019470215,-0.01679411990002094,0.013969111079345444,1.8197626977192496,0.029099678085535447,0.24654248502758264,9.85253626268995,0.0
1970/01/01 05:40:54.320394272,0,654313480,0.22332049906253815,-0.616441011428833,0.9569199681282043,-0.2732100188732147,-0.11709171533584595,0.022111566737294197,-1.0996285676956177,1.2247356176376343,8.31685733795166,0.01795672635622534,-0.01701247239432181,-1.8213652639493174,0.0,0.0,0.0,0.02378221308138906,0.0696867354606141,0.043080031871795654,-0.0002127478455191123,-0.006480931308210078,-0.022111566737294197,1.03783096711288,-1.0879970626424285,-8.31685733795166,-0.01795672635622534,0.01701247239432181,1.8213652639493174,-0.1472651522251729,0.31793296455210124,10.533895679384246,0.0
1970/01/01 05:40:54.350500448,0,654333336,0.21690276265144348,-0.6191571950912476,0.9566627740859985,-0.2523331642150879,-0.07653206586837769,0.003591681132093072,-0.796883761882782,-0.530493974685669,9.128092765808105,0.01674875142251073,-0.01472710408731089,-1.8240307126579736,0.0,0.0,0.0,0.030199949492483724,0.07240291912302865,0.043337225914001465,-0.021089602503645943,-0.04704058077567834,-0.003591681132093072,0.7350861613000443,0.6672325296808748,-9.128092765808105,-0.01674875142251073,0.01472710408731089,1.8240307126579736,-0.03207385464412296,0.2565242724910926,10.090014256617954,0.0
1970/01/01 05:40:54.380531936,0,654363286,0.20709900557994843,-0.6231861114501953,0.9564846158027649,-0.2642073929309845,-0.11630197614431381,-0.004414418712258339,-0.4537087380886078,-0.45251500606536865,10.641033172607422,0.01940281776696064,-0.017788109589148095,-1.826260514424518,0.0,0.0,0.0,0.030855700911559952,0.07238891162114236,0.04351538419723511,-0.011237561127713569,-0.0026949938255272227,0.004414418712258339,0.39418803658253565,0.5902874880618283,-10.641033172607422,-0.01940281776696064,0.017788109589148095,1.826260514424518,-0.006161460739690177,0.345859423550502,10.25856007616346,0.0
1970/01/01 05:40:54.410724000,0,654393356,0.19721519947052002,-0.6270621418952942,0.9565118551254272,-0.2509607672691345,-0.08576686680316925,0.0034465747885406017,-0.11896742135286331,1.8808231353759766,9.169611930847168,0.01666902196297279,-0.017309732864985307,-1.8278806211847625,0.0,0.0,0.0,0.03152537158457769,0.07237508884985966,0.043488144874572754,-0.026429502198665134,-0.028622190764758332,-0.0034465747885406017,0.06176919831284046,-1.7421208732576274,-9.169611930847168,-0.01666902196297279,0.017309732864985307,1.8278806211847625,-0.1882648676672154,0.25946215819883933,10.304046324794355,0.0
1970/01/01 05:40:54.440329632,0,654423216,0.1871703714132309,-0.630800187587738,0.9565463066101074,-0.24669712781906128,-0.07832614332437515,-0.012656059116125107,0.8746469020843506,-1.3857483863830566,11.248543739318848,0.01724727166389797,-0.018258977083684583,-1.828993031785315,0.0,0.0,0.0,0.03229251062430055,0.072377394950498,0.04345369338989258,-0.03256104110897162,-0.03142400917090932,0.012656059116125107,-0.9295226466583242,1.525380428623295,-11.248543739318848,-0.01724727166389797,0.018258977083684583,1.828993031785315,-0.07192285937446286,0.2469696633147156,10.333750356604117,0.0
1970/01/01 05:40:54.470270784,0,654453278,0.17685925960540771,-0.6344542503356934,0.9563983678817749,-0.24596452713012695,-0.09127572178840637,0.008781599812209606,-0.27602502703666687,-0.4007963240146637,8.958321571350098,0.016720375549832217,-0.019864807642581743,-1.8317812054870013,0.0,0.0,0.0,0.03326496036503085,0.07245086482024798,0.0436016321182251,-0.03508412530927091,-0.01380453296350534,-0.008781599812209606,0.22347176092874255,0.5413581463767916,-8.958321571350098,-0.016720375549832217,0.019864807642581743,1.8317812054870013,-0.07551714620869279,0.30982704700041824,10.137889815596482,0.0
1970/01/01 05:40:54.507004864,0,654483277,0.16630858182907104,-0.6379919052124023,0.9561890363693237,-0.23317216336727142,-0.041926074773073196,0.010220065712928772,0.734768807888031,0.4083741307258606,9.307960510253906,0.01566969485198825,-0.019246999116840864,-1.8341954739983493,0.0,0.0,0.0,0.034418584644255484,0.07256410363245458,0.04381096363067627,-0.04958935116393276,-0.05845385409081802,-0.010220065712928772,-0.7849737236443698,-0.26695361066314877,-9.307960510253906,-0.01566969485198825,0.019246999116840864,1.8341954739983493,-0.12050826634321585,0.1546139405196674,10.12663595123849,0.0
1970/01/01 05:40:54.530645152,0,654523179,0.15259352326393127,-0.6422200202941895,0.956218957901001,-0.19958628714084625,-0.070066899061203,0.0029343655332922935,0.20237773656845093,-2.3475584983825684,10.282930374145508,0.017169536020237297,-0.02342854374697721,-1.8367417619253925,0.0,0.0,0.0,0.038680807914947046,0.07352493259797754,0.04378104209899902,-0.08480911170114819,-0.025586002342497194,-0.0029343655332922935,-0.2502058794595281,2.489759625931318,-10.282930374145508,-0.017169536020237297,0.02342854374697721,1.8367417619253925,-0.1393028280264433,0.3040056108424077,10.182150016983947,0.0
1970/01/01 05:40:54.560516064,0,654543207,0.14575833082199097,-0.6441612243652344,0.9563698768615723,-0.2564753592014313,-0.052067436277866364,0.03770294040441513,-0.5601823925971985,1.966347098350525,8.661481857299805,0.01569328132287544,-0.022084464802398427,-1.8387903904201999,0.0,0.0,0.0,0.03601002268144882,0.07235685180559026,0.043630123138427734,-0.029474698189178083,-0.038832417416108087,-0.03770294040441513,0.514731022571383,-1.8233653633157372,-8.661481857299805,-0.01569328132287544,0.022084464802398427,1.8387903904201999,-0.008902051883658639,0.21621986177171382,9.872017798906903,0.0
1970/01/01 05:40:54.591059200,0,654573266,0.13571642339229584,-0.6468666195869446,0.9565794467926025,-0.24173501133918762,-0.04108024761080742,0.011455691419541836,0.456707239151001,-0.5455160737037659,9.962578773498535,0.016841926817594676,-0.021960753303229517,-1.8416970815275402,0.0,0.0,0.0,0.046051930111143946,0.07506224702730047,0.04342055320739746,-0.044215046051421736,-0.04981960608316703,-0.011455691419541836,-0.5021586091768164,0.6884978087385536,-9.962578773498535,-0.016841926817594676,0.021960753303229517,1.8416970815275402,-0.06199025825661089,0.19394624943415428,10.111539747143146,0.0
1970/01/01 05:40:54.620512736,0,654613162,0.1224101334810257,-0.6501368284225464,0.9565843939781189,-0.24961170554161072,-0.07239548861980438,0.00961642898619175,-0.8240921497344971,-0.076991967856884,9.005209922790527,0.018483688575167436,-0.02386557356880662,-1.8419454526051806,0.0,0.0,0.0,0.049801740824724855,0.07538203959395307,0.043415606021881104,-0.03781378463543811,-0.01372529711490987,-0.00961642898619175,0.7810175525739432,0.22075431037770973,-9.005209922790527,-0.018483688575167436,0.02386557356880662,1.8419454526051806,0.0009814496258301498,0.337964012653862,10.06774432618418,0.0
1970/01/01 05:40:54.650431360,0,654633427,0.11581798642873764,-0.6516557931900024,0.9564214944839478,-0.27042317390441895,-0.020569544285535812,0.011014132760465145,-0.3914962410926819,2.235889196395874,10.222360610961914,0.016508301238687035,-0.01898557380770005,-1.8457227163371999,0.0,0.0,0.0,0.046789550497429305,0.074110315576982,0.043578505516052246,-0.01839818952641359,-0.06074728995824916,-0.011014132760465145,0.3508283442518789,-2.091448169938832,-10.222360610961914,-0.016508301238687035,0.01898557380770005,1.8457227163371999,0.035429169653752465,0.15427531192743613,10.11712094337628,0.0
1970/01/01 05:40:54.680255424,0,654663569,0.10634560137987137,-0.6536813974380493,0.956282913684845,-0.25869160890579224,-0.05453810095787048,-0.0044637685641646385,0.5755462050437927,-1.1568000316619873,10.855791091918945,0.020555185315726917,-0.020368751401245368,-1.8465550106162127,0.0,0.0,0.0,0.04661241191458573,0.07350572004856759,0.04371708631515503,-0.03144499280575014,-0.021953560877023062,0.0044637685641646385,-0.6137926050455815,1.301869349738432,-10.855791091918945,-0.020555185315726917,0.020368751401245368,1.8465550106162127,-0.008347809762576734,0.28902175329396396,10.26092651524514,0.0
1970/01/01 05:40:54.711569184,0,654693308,0.09714628756046295,-0.655407726764679,0.9564380049705505,-0.26118093729019165,-0.05772532895207405,0.006344154942780733,-1.1006466150283813,0.6476461887359619,9.591092109680176,0.01870019423467018,-0.01924599310213822,-1.8483247603995985,0.0,0.0,0.0,0.04611970610228239,0.07276303772993209,0.04356199502944946,-0.030190186140760078,-0.013920217419947964,-0.006344154942780733,1.0648217118656067,-0.5019485790401146,-9.591092109680176,-0.01870019423467018,0.01924599310213822,1.8483247603995985,-0.11428141247601271,0.248766154000705,10.264435393934075,0.0
1970/01/01 05:40:54.740341952,0,654723191,0.0878208577632904,-0.6569920778274536,0.956554114818573,-0.24793437123298645,0.006293387617915869,0.005628671031445265,0.24040541052818298,0.9932788014411926,10.570782661437988,0.015920706579327166,-0.01665351589526432,-1.850023509332734,0.0,0.0,0.0,0.04571331081978444,0.0720402633804369,0.043445885181427,-0.0445905573560742,-0.07307187547308627,-0.005628671031445265,-0.2738088168519436,-0.8469529001259425,-10.570782661437988,-0.015920706579327166,0.01665351589526432,1.850023509332734,-0.0522891868618642,0.10675529758225956,10.165376701990285,0.0
1970/01/01 05:40:54.770850592,0,654763151,0.0749659389257431,-0.6589657664299011,0.9567646384239197,-0.2058285027742386,-0.006687998306006193,0.002018430270254612,1.0921950340270996,-1.7933546304702759,10.32632827758789,0.016009934144652967,-0.018144390524969495,-1.8521396716236291,0.0,0.0,0.0,0.048799293827228044,0.0718693925511954,0.04323536157608032,-0.08776908149179641,-0.05520440474053385,-0.002018430270254612,-1.1231468031354983,1.9401753762178189,-10.32632827758789,-0.016009934144652967,0.018144390524969495,1.8521396716236291,-0.16113246541620999,0.15821593116859933,10.196651347387444,0.0
1970/01/01 05:40:54.801008640,0,654783180,0.06860977411270142,-0.6598327159881592,0.956939160823822,-0.25222498178482056,-0.03939865902066231,0.015378336422145367,-0.6152526140213013,0.7916675209999084,8.686059951782227,0.014927880899604234,-0.019224537048755732,-1.85361044278091,0.0,0.0,0.0,0.04535213197269322,0.07075491676402923,0.04306083917617798,-0.042363386946500436,-0.017591828403557767,-0.015378336422145367,0.586757315212541,-0.6443733294082603,-8.686059951782227,-0.014927880899604234,0.019224537048755732,1.85361044278091,-0.010193048307001988,0.2865036457218639,10.07198800077566,0.0
1970/01/01 05:40:54.830491808,0,654823071,0.056311797350645065,-0.6613438725471497,0.9574811458587646,-0.2498714029788971,0.0011959312250837684,0.01557107362896204,0.39624378085136414,0.2730426490306854,10.294351577758789,0.011979669464436219,-0.015556912657806092,-1.859151998063932,0.0,0.0,0.0,0.05765010873474957,0.07226607332301971,0.04251885414123535,-0.0447169657524239,-0.058186418649303843,-0.01557107362896204,-0.42473907966012436,-0.12574845743903723,-10.294351577758789,-0.011979669464436219,0.015556912657806092,1.859151998063932,-0.06272291739005936,0.07859500643734933,9.935951481186105,0.0
1970/01/01 05:40:54.860575776,0,654853062,0.04718616232275963,-0.6621254682540894,0.9580637216567993,-0.19964544475078583,0.004207550548017025,0.03666343167424202,0.8900622129440308,-1.5408821105957031,9.119502067565918,0.011257246243389711,-0.015621670728606143,-1.8572465550297461,0.0,0.0,0.0,0.056940755651937944,0.07122990389741479,0.041936278343200684,-0.09585182610249987,-0.05628034082178043,-0.03666343167424202,-0.9161010414531526,1.6886497480314566,-9.119502067565918,-0.011257246243389711,0.015621670728606143,1.8572465550297461,-0.19071018663946046,0.16453540447554849,9.865300706714894,0.0
1970/01/01 05:40:54.890448320,0,654883094,0.03816499933600426,-0.6628154516220093,0.9585323333740234,-0.27816009521484375,-0.011369368061423302,0.04681883007287979,-0.8448689579963684,1.6603648662567139,8.47065544128418,0.013051107634434345,-0.014613702429493098,-1.8580183111769324,0.0,0.0,0.0,0.056097998497069465,0.07026630839192038,0.04146766662597656,-0.01816419417746218,-0.03576995128084333,-0.04681883007287979,0.8212879656356004,-1.5121323189276341,-8.47065544128418,-0.013051107634434345,0.014613702429493098,1.8580183111769324,0.041129001436456,0.25421678610467596,9.886011246422626,0.0
1970/01/01 05:40:54.920749792,0,654913086,0.02930383011698723,-0.6634190082550049,0.9587845206260681,-0.26494085788726807,-0.006370222195982933,-0.009691980667412281,-0.5822744965553284,0.54249507188797,10.857714653015137,0.013988866757689955,-0.010036120100184811,-1.864966831018755,0.0,0.0,0.0,0.05506905039844283,0.06938096444233233,0.041215479373931885,-0.032128105376707294,-0.0358227340074886,0.009691980667412281,0.5611750566159324,-0.39394583088934265,-10.857714653015137,-0.013988866757689955,0.010036120100184811,1.864966831018755,-0.02336371283545532,0.13036029064525262,10.150723354489902,0.0
1970/01/01 05:40:54.951017472,0,654933137,0.02342851273715496,-0.6636829972267151,0.9588090777397156,-0.24095512926578522,-0.021724991500377655,0.021851077675819397,0.3757364749908447,-0.7438924312591553,9.45162582397461,0.016617073401357003,-0.012106968629113351,-1.861918121662751,0.0,0.0,0.0,0.051030806638476534,0.0683211075436797,0.041190922260284424,-0.0567757894558138,-0.015511045108647196,-0.021851077675819397,-0.39435436250886874,0.8927583659273303,-9.45162582397461,-0.016617073401357003,0.012106968629113351,1.861918121662751,-0.06419987911006429,0.2997203066624277,9.994459923517947,0.0
1970/01/01 05:40:54.980550208,0,654973041,0.0114525081589818,-0.664177656173706,0.9588893055915833,-0.28023043274879456,-0.002905297325924039,0.023618601262569427,-0.9793334007263184,1.9054081439971924,9.402843475341797,0.017173464908765236,-0.01002818203842533,-1.8632211061217538,0.0,0.0,0.0,0.05307256353516446,0.06765732721438356,0.04111069440841675,-0.018079723016382387,-0.029363263233002528,-0.023618601262569427,0.9631970656296663,-1.7562255156594697,-9.402843475341797,-0.017173464908765236,0.01002818203842533,1.8632211061217538,0.026978211977797577,0.2597261169220605,10.142910563211156,0.0
1970/01/01 05:40:55.10552352,0,655003051,0.002822204027324915,-0.664332389831543,0.959010660648346,-0.2514384388923645,0.02687709592282772,-0.01465629693120718,0.4148802161216736,0.5179421305656433,10.779681205749512,0.015266402441626923,-0.007981291957551404,-1.869058716122218,0.0,0.0,0.0,0.05175069076627983,0.06681937963032125,0.04098933935165405,-0.04736822014599318,-0.05416778479499354,0.01465629693120718,-0.4285312700648047,-0.3684818576081652,-10.779681205749512,-0.015266402441626923,0.007981291957551404,1.869058716122218,0.005023340020685977,0.14570414457627767,10.328478252655495,0.0
1970/01/01 05:40:55.41639712,0,655033009,-0.00565157039090991,-0.6642508506774902,0.9589084386825562,-0.194492369890213,0.021877815946936607,0.0036787623539566994,0.8533964157104492,-1.5780858993530273,9.628060340881348,0.014958013410570544,-0.011503803021729353,-1.8674854999435961,0.0,0.0,0.0,0.06022446518451466,0.06673784047626852,0.04109156131744385,-0.10431428914814467,-0.04916850481910243,-0.0036787623539566994,-0.8670474696535804,1.7275461723105054,-9.628060340881348,-0.014958013410570544,0.011503803021729353,1.8674854999435961,-0.07249068628066423,0.2606568523330067,10.172367945476282,0.0
1970/01/01 05:40:55.70447392,0,655063254,-0.013844460248947144,-0.6640557050704956,0.9589715600013733,-0.25286445021629333,0.017171166837215424,0.03751728683710098,-0.5158452391624451,1.3349639177322388,8.743270874023438,0.012285565483251071,-0.014069861211816822,-1.8697835123397852,0.0,0.0,0.0,0.05845001149689888,0.06571606810782271,0.04102843999862671,-0.046355633250046324,-0.039477202172776574,-0.03751728683710098,0.5046908274266599,-1.1853449784934356,-8.743270874023438,-0.012285565483251071,0.014069861211816822,1.8697835123397852,-0.2616368017813555,0.18392746663206905,10.17256487254903,0.0
1970/01/01 05:40:55.100211040,0,655092958,-0.021876029670238495,-0.6636986136436462,0.9591822028160095,-0.21720458567142487,0.042300134897232056,-0.003988210111856461,0.8931984305381775,-0.5625090003013611,10.352774620056152,0.009433541914583924,-0.01349467949650653,-1.8759045070157367,0.0,0.0,0.0,0.05650184358171941,0.06469859318534321,0.04081779718399048,-0.08234570081598525,-0.05961622782014424,0.003988210111856461,-0.9018562000666166,0.7122866058214894,-10.352774620056152,-0.009433541914583924,0.01349467949650653,1.8759045070157367,-0.1273584045945617,0.13527547909492982,10.228625723234805,0.0
1970/01/01 05:40:55.130259520,0,655122943,-0.02984277904033661,-0.663090169429779,0.9593184590339661,-0.20354655385017395,0.025680525228381157,0.027318689972162247,0.005002039019018412,-0.968789279460907,8.590201377868652,0.010133479732576497,-0.017939600338555836,-1.8735015991363815,0.0,0.0,0.0,0.054479235871426494,0.06359618503753472,0.040681540966033936,-0.09625071425139498,-0.03800138686260033,-0.027318689972162247,-0.011163166340111613,1.1187255512623604,-8.590201377868652,-0.010133479732576497,0.017939600338555836,1.8735015991363815,-0.17963086783093582,0.20783825205919068,9.939255152456374,0.0
1970/01/01 05:40:55.160658976,0,655152995,-0.03776853531599045,-0.6624453663825989,0.9594174027442932,-0.26477232575416565,0.0332326665520668,0.038253914564847946,-0.49772679805755615,1.9818617105484009,8.912561416625977,0.011622291819903638,-0.01659298832903682,-1.8774262385929665,0.0,0.0,0.0,0.052408789448983896,0.06262401141528573,0.04058259725570679,-0.03518868632132072,-0.040553519405537516,-0.038253914564847946,0.4940645278329814,-1.8318365461264776,-8.912561416625977,-0.011622291819903638,0.01659298832903682,1.8774262385929665,-0.22340927190921775,0.169614874951666,9.976292072504686,0.0
1970/01/01 05:40:55.190482144,0,655173008,-0.04300708696246147,-0.6619085073471069,0.9594155550003052,-0.23158320784568787,0.045520685613155365,5.22769259987399e-05,0.3829768896102905,-1.1214466094970703,10.67436408996582,0.013405033030533907,-0.016505592226772208,-1.8786360290614748,0.0,0.0,0.0,0.047647069372239226,0.061926471264912464,0.040584444999694824,-0.06845818525567893,-0.04784069965256198,-5.22769259987399e-05,-0.38413748093853806,1.2714717739189938,-10.67436408996582,-0.013405033030533907,0.016505592226772208,1.8786360290614748,-0.09781672211542783,0.16845648427622975,10.18923161940164,0.0
1970/01/01 05:40:55.220801344,0,655212954,-0.053594138473272324,-0.6606345772743225,0.9591552019119263,-0.24579770863056183,0.02369031123816967,0.01429178100079298,1.0225592851638794,-0.5861497521400452,10.53106689453125,0.01759338609846763,-0.017583112057754424,-1.879396789636903,0.0,0.0,0.0,0.0482325596139141,0.060658554704382195,0.04084479808807373,-0.05424067620014106,-0.02100948646351218,-0.01429178100079298,-1.0212181975957997,0.7361749165619691,-10.53106689453125,-0.01759338609846763,0.017583112057754424,1.879396789636903,-0.030448127791606536,0.24603628549878379,10.015959775191543,0.0
1970/01/01 05:40:55.254548384,0,655232996,-0.05879489704966545,-0.6599833965301514,0.9587939381599426,-0.2282891422510147,0.04980383440852165,-0.014405066147446632,0.19050045311450958,1.5800331830978394,10.238251686096191,0.018187909723629464,-0.014163497331377376,-1.8815289762274763,0.0,0.0,0.0,0.05343331819030723,0.06000737396021105,0.04120606184005737,-0.07174924257968818,-0.04712300963386416,0.014405066147446632,-0.18915936554642987,-1.4300080186759154,-10.238251686096191,-0.018187909723629464,0.014163497331377376,1.8815289762274763,-0.08945808368071152,0.16523531342690734,10.328281317289045,0.0
1970/01/01 05:40:55.280543584,0,655263012,-0.06629334390163422,-0.6588465571403503,0.9583609104156494,-0.2768004238605499,0.03571094572544098,-0.013078676536679268,-0.8269643783569336,0.08376787602901459,11.293806076049805,0.02101635524066802,-0.013019689316171281,-1.8841199519755456,0.0,0.0,0.0,0.050931693870437895,0.05904324270979977,0.041639089584350586,-0.023151563402944886,-0.028029282136719375,0.013078676536679268,0.8308071448213405,0.06625728839290956,-11.293806076049805,-0.02101635524066802,0.013019689316171281,1.8841199519755456,0.08469751734544108,0.1695400827607206,10.199566159613305,0.0
1970/01/01 05:40:55.311035648,0,655302966,-0.07476090639829636,-0.6571536064147949,0.9579418301582336,-0.23114998638629913,0.04082007333636284,-0.0017896585632115602,-0.5045201778411865,0.09051497280597687,9.561230659484863,0.019727929589547888,-0.011841859827046393,-1.8856130912756757,0.0,0.0,0.0,0.04940345469987958,0.05768968731947566,0.04205816984176636,-0.06863224758536857,-0.02813862851973472,0.0017896585632115602,0.5108614380047882,0.059409851216463555,-9.561230659484863,-0.019727929589547888,0.011841859827046393,1.8856130912756757,-0.2045199067709875,0.18098269788687724,10.37456137487411,0.0
1970/01/01 05:40:55.340309920,0,655333144,-0.0810367614030838,-0.6557560563087463,0.9575441479682922,-0.21288993954658508,0.08668278902769089,0.0038943549152463675,1.6494553089141846,-0.12089065462350845,9.604792594909668,0.018261195648467378,-0.010338256822098177,-1.8865362577151839,0.0,0.0,0.0,0.045690553835740486,0.05679811422690473,0.042455852031707764,-0.08663930838284017,-0.0690064945150034,-0.0038943549152463675,-1.6406174065432397,0.2706568123646227,-9.604792594909668,-0.018261195648467378,0.010338256822098177,1.8865362577151839,-0.1573517560299013,0.07865900177559432,10.171809818288285,0.0
1970/01/01 05:40:55.371498368,0,655362931,-0.08835699409246445,-0.654293954372406,0.9571492671966553,-0.22630253434181213,0.043105658143758774,-0.020793264731764793,-0.9601473808288574,-0.4553429186344147,10.114384651184082,0.020692725851091668,-0.01450023855444668,-1.8889686106650916,0.0,0.0,0.0,0.04303185054771814,0.056008396145976524,0.04285073280334473,-0.07289050613845927,-0.020439802811056274,0.020793264731764793,0.9714819254071455,0.6049504100942027,-10.114384651184082,-0.020692725851091668,0.01450023855444668,1.8889686106650916,-0.11471365895943413,0.2462989896618583,10.402898639606551,0.0
1970/01/01 05:40:55.400320960,0,655393060,-0.09589563310146332,-0.6527043581008911,0.956963062286377,-0.2134421169757843,0.06583138555288315,0.01652563363313675,0.33443278074264526,-0.3567127287387848,9.355822563171387,0.015912097716797843,-0.014164446444283932,-1.8900981000784698,0.0,0.0,0.0,0.040604147517734335,0.05525741427594022,0.04303693771362305,-0.08533149464842177,-0.038181258276209835,-0.01652563363313675,-0.32060159395701393,0.5061615539172466,-9.355822563171387,-0.015912097716797843,0.014164446444283932,1.8900981000784698,-0.30371699128884405,0.20375940021956548,10.226898662566208,0.0
1970/01/01 05:40:55.431645024,0,655423119,-0.10423451662063599,-0.6509918570518494,0.9570620656013489,-0.2164318710565567,0.10617620497941971,0.034251682460308075,1.4715148210525513,0.11551649123430252,9.463520050048828,0.014813324885860776,-0.013133845696605377,-1.8909624965317486,0.0,0.0,0.0,0.03899205541387159,0.05454956544338807,0.04293793439865112,-0.08183926149893272,-0.07354888746222556,-0.034251682460308075,-1.4551994418420955,0.03364328764155852,-9.463520050048828,-0.014813324885860776,0.013133845696605377,1.8909624965317486,-0.047869030966725616,0.14469548030898585,9.884282018327466,0.0
1970/01/01 05:40:55.461731712,0,655442839,-0.11043886095285416,-0.6498273611068726,0.9571524262428284,-0.2359105795621872,0.05020832270383835,0.0030343520920723677,-1.5613878965377808,-0.4179583489894867,9.53330135345459,0.01750506418729815,-0.013953396273352937,-1.8939006851841025,0.0,0.0,0.0,0.03526355230721287,0.05455545464582845,0.04284757375717163,-0.061775347812597525,-0.012614290785274575,-0.0030343520920723677,1.5801848281696071,0.5668014341958039,-9.53330135345459,-0.01750506418729815,0.013953396273352937,1.8939006851841025,-0.06634302217911446,0.2479463333337812,10.18354830099995,0.0
1970/01/01 05:40:55.490830176,0,655482852,-0.12366463989019394,-0.6472271084785461,0.9573330879211426,-0.2664077579975128,0.08060850203037262,0.024360360577702522,0.15562686324119568,1.6155617237091064,9.544577598571777,0.01820164223108376,-0.01133483518867721,-1.8928113634956976,0.0,0.0,0.0,0.04848933124455265,0.051955202017502033,0.04266691207885742,-0.0312781693772719,-0.043014470111808846,-0.024360360577702522,-0.13682993160936932,-1.4667186385027893,-9.544577598571777,-0.01820164223108376,0.01133483518867721,1.8928113634956976,0.054869546231093955,0.15422392542396823,9.985537676882734,0.0
1970/01/01 05:40:55.520918208,0,655502808,-0.13057909905910492,-0.6458475589752197,0.9575022459030151,-0.267687052488327,0.07165753841400146,0.027050064876675606,0.4814022183418274,-0.32475757598876953,10.67817211151123,0.020947659721349328,-0.011970771459214274,-1.8912955996436633,0.0,0.0,0.0,0.045491828454177666,0.0519114188673776,0.04249775409698486,-0.02933095129170732,-0.02910734854971954,-0.027050064876675606,-0.4601237342886304,0.47328396752554286,-10.67817211151123,-0.020947659721349328,0.011970771459214274,1.8912955996436633,0.1306698026547123,0.23663494549404565,10.033991366728683,0.0
1970/01/01 05:40:55.550904000,0,655543028,-0.14432361721992493,-0.6429504752159119,0.9581642150878906,-0.24682335555553436,0.051266491413116455,0.030863730236887932,-1.0189646482467651,0.05849490314722061,9.74578857421875,0.02201583138968439,-0.011449649566888188,-1.8911399636731097,0.0,0.0,0.0,0.049348027415745094,0.050515130785040774,0.041835784912109375,-0.04944400634659579,-0.003770700876784376,-0.030863730236887932,1.042724240893887,0.08971202099465955,-9.74578857421875,-0.02201583138968439,0.011449649566888188,1.8911399636731097,-0.055484329409149206,0.2783897919229257,10.165253640238872,0.0
1970/01/01 05:40:55.580562784,0,655563052,-0.1514328569173813,-0.641408383846283,0.9584316611289978,-0.228262796998024,0.09668678045272827,0.024196282029151917,0.9463747143745422,0.3614991307258606,10.224934577941895,0.02034603276623625,-0.008899718659607047,-1.8907921904763958,0.0,0.0,0.0,0.04659534305873066,0.050638481938211966,0.0415683388710022,-0.06717163731087483,-0.04425864987573543,-0.024196282029151917,-0.9201586514277819,-0.21376565242809406,-10.224934577941895,-0.02034603276623625,0.008899718659607047,1.8907921904763958,-0.06909580366691116,0.14477666976685977,9.97647701474162,0.0
1970/01/01 05:40:55.611344576,0,655602794,-0.16524489223957062,-0.6381932497024536,0.9590071439743042,-0.24489492177963257,0.08707902580499649,0.01761278137564659,0.19945429265499115,-0.24278570711612701,9.369734764099121,0.02053518012048294,-0.011285820271813823,-1.8922765179472008,0.0,0.0,0.0,0.05057458328527868,0.049252938626402676,0.0409928560256958,-0.049624702592713565,-0.029734336715479877,-0.01761278137564659,-0.17078175940859236,0.3900457395697799,-9.369734764099121,-0.02053518012048294,0.011285820271813823,1.8922765179472008,0.06352172623010456,0.1613730608103241,10.073226547074158,0.0
1970/01/01 05:40:55.640696544,0,655633174,-0.17590531706809998,-0.6356236934661865,0.9595353007316589,-0.2263209968805313,0.07232774049043655,0.03895490989089012,-0.30934545397758484,-0.51518315076828,9.081825256347656,0.014910470517403582,-0.013213569170168247,-1.8938932443470435,0.0,0.0,0.0,0.051434071388440764,0.04867659548043746,0.040464699268341064,-0.06720193521194084,-0.010082274416533421,-0.03895490989089012,0.340474457523622,0.6619697373778193,-9.081825256347656,-0.014910470517403582,0.013213569170168247,1.8938932443470435,-0.13488357382126556,0.21135326911476798,10.1151730153025,0.0
1970/01/01 05:40:55.670866784,0,655652909,-0.18313992023468018,-0.6338770985603333,0.9598090648651123,-0.27056968212127686,0.08544488251209259,0.04478296637535095,0.3803284466266632,0.7760095596313477,9.50996208190918,0.012862112613826544,-0.013649553146871343,-1.8910109315335217,0.0,0.0,0.0,0.04890232555109769,0.049086309605366196,0.040190935134887695,-0.02187470113752188,-0.018314535165621426,-0.04478296637535095,-0.34675032920194715,-0.6297289895834433,-9.50996208190918,-0.012862112613826544,0.013649553146871343,1.8910109315335217,0.12698801020969597,0.20651601572457268,9.773839718297406,0.0
1970/01/01 05:40:55.700337664,0,655692806,-0.19781494140625,-0.630374550819397,0.9601221084594727,-0.2723659574985504,0.06700540333986282,0.008679449558258057,-1.052106261253357,0.7619418501853943,9.828805923461914,0.010135418667920728,-0.012235551891257879,-1.8958223283843556,0.0,0.0,0.0,0.06357734672266752,0.04558376186442992,0.039877891540527344,-0.02007842576024832,0.0001249440066083407,-0.008679449558258057,1.085684378678073,-0.6156612801374899,-9.828805923461914,-0.010135418667920728,0.012235551891257879,1.8958223283843556,0.09671649586220045,0.23428558123538942,10.27061478805088,0.0
1970/01/01 05:40:55.730799904,0,655722865,-0.20892752707004547,-0.627596914768219,0.9600799679756165,-0.24324831366539001,0.09136253595352173,-0.0030164814088493586,0.7213289737701416,-0.29569002985954285,10.042200088500977,0.007787042304801821,-0.011955144610872942,-1.8928250882026163,0.0,0.0,0.0,0.06496088921285736,0.045124954691194485,0.039920032024383545,-0.04803644073193464,-0.019366641132443616,0.0030164814088493586,-0.6853293595064142,0.4413423082880562,-10.042200088500977,-0.007787042304801821,0.011955144610872942,1.8928250882026163,0.05253346399941203,0.28031174566123784,10.05871415860534,0.0
1970/01/01 05:40:55.760463264,0,655742926,-0.2163400948047638,-0.6257268786430359,0.9599733948707581,-0.2924484312534332,0.09940902888774872,0.012668216601014137,-0.2862154543399811,1.6534838676452637,9.576164245605469,0.007228286495865069,-0.01140701362914618,-1.8948735792572238,0.0,0.0,0.0,0.0626844133453742,0.045735583308874284,0.04002660512924194,0.002404022278882978,-0.02256852964604336,-0.012668216601014137,0.3246365654427198,-1.5084598808361414,-9.576164245605469,-0.007228286495865069,0.01140701362914618,1.8948735792572238,0.23521174314336563,0.20339522925843437,10.06782638445954,0.0
1970/01/01 05:40:55.790376096,0,655782872,-0.23114877939224243,-0.621799647808075,0.959716796875,-0.21664224565029144,0.08319158852100372,-0.03028859943151474,0.5261741876602173,-1.8690541982650757,10.802892684936523,0.008318150681614171,-0.013486905970912883,-1.8946772937523249,0.0,0.0,0.0,0.06784674445409883,0.04445015497989757,0.040283203125,-0.07208110134018397,-0.001527427912650814,0.03028859943151474,-0.4853315797184672,2.013449893454807,-10.802892684936523,-0.008318150681614171,0.013486905970912883,1.8946772937523249,-0.0023576050337146865,0.27645832933834985,10.503165383717912,0.0
1970/01/01 05:40:55.820505536,0,655812719,-0.24228738248348236,-0.6187379956245422,0.9592527747154236,-0.27063992619514465,0.09758808463811874,0.019044896587729454,0.2777482569217682,1.2088232040405273,8.469675064086914,0.008114340830860921,-0.016002317254328866,-1.8917464275193807,0.0,0.0,0.0,0.06938437420003421,0.04419074311764759,0.040747225284576416,-0.01668176330410559,-0.011121617989671637,-0.019044896587729454,-0.234502175496894,-1.0651171823833308,-8.469675064086914,-0.008114340830860921,0.016002317254328866,1.8917464275193807,0.19550829349198115,0.2625324880534954,9.998650497284002,0.0
1970/01/01 05:40:55.852665184,0,655842730,-0.2531341314315796,-0.6155956983566284,0.958943784236908,-0.2490469217300415,0.09516599774360657,-0.017968758940696716,0.3232979476451874,-0.17357158660888672,9.972521781921387,0.007106014702553204,-0.016972777420669334,-1.8970968977749958,0.0,0.0,0.0,0.07067819924207125,0.04401035352643867,0.04105621576309204,-0.03679361884062515,-0.003922340498020455,0.017968758940696716,-0.2776750933550474,0.3164970007800316,-9.972521781921387,-0.007106014702553204,0.016972777420669334,1.8970968977749958,0.07738843348715249,0.21932595864563734,10.341790601459701,0.0
1970/01/01 05:40:55.882249120,0,655862742,-0.26033446192741394,-0.6134534478187561,0.9585397243499756,-0.2634962797164917,0.06951000541448593,-0.003921265248209238,-0.5946260690689087,-0.12293718010187149,9.372892379760742,0.006734936869020372,-0.02088599506709265,-1.893507334870724,0.0,0.0,0.0,0.06837629789216754,0.04498881668101684,0.041460275650024414,-0.02078388616341581,0.02648482217870425,0.003921265248209238,0.6426256962243145,0.2650819867869646,-9.372892379760742,-0.006734936869020372,0.02088599506709265,1.893507334870724,0.20138382779418648,0.34489305765749306,10.23428193953163,0.0
1970/01/01 05:40:55.911263168,0,655902702,-0.27442166209220886,-0.6091587543487549,0.9576680064201355,-0.28399649262428284,0.11897686123847961,-0.010152731090784073,0.6669763922691345,1.708431601524353,9.888608932495117,0.003983475403427686,-0.018706328611811172,-1.8939340070567547,0.0,0.0,0.0,0.07301459913028621,0.04397277557756074,0.0423319935798645,0.0013559271973099252,-0.018256883547220548,0.010152731090784073,-0.6165999922484628,-1.5670674023253117,-9.888608932495117,-0.003983475403427686,0.018706328611811172,1.8939340070567547,0.14821497483423063,0.2897989651372699,10.478684738904072,0.0
1970/01/01 05:40:55.940544768,0,655923097,-0.2813476324081421,-0.6069497466087341,0.9573349356651306,-0.26425641775131226,0.07578402757644653,-0.032895058393478394,0.18165487051010132,-1.9765428304672241,10.96936321258545,0.006819173776053606,-0.02179099218402292,-1.891659426982159,0.0,0.0,0.0,0.07994056944621944,0.04176376783753999,0.042665064334869385,-0.018384147675660656,0.024935950114812533,0.032895058393478394,-0.13127847048942967,2.1179070296662657,-10.96936321258545,-0.006819173776053606,0.02179099218402292,1.891659426982159,0.22624629430195228,0.3542752635228493,10.51254939093909,0.0
1970/01/01 05:40:55.970875552,0,655952727,-0.291848361492157,-0.6035351157188416,0.9568918347358704,-0.24025048315525055,0.10906342417001724,0.002265861025080085,-0.2061392068862915,1.5338906049728394,9.044840812683105,0.0033242864189420743,-0.02138028010346512,-1.8902241201734473,0.0,0.0,0.0,0.08104837125659603,0.04178485480889804,0.04310816526412964,-0.040671577104565926,-0.0036451987022271537,-0.002265861025080085,0.2588600399153062,-1.393395866286466,-9.044840812683105,-0.0033242864189420743,0.02138028010346512,1.8902241201734473,0.15379766046258117,0.25329704871239694,10.193165026446632,0.0
1970/01/01 05:40:56.571392,0,655982766,-0.30193910002708435,-0.5999888777732849,0.9566671848297119,-0.25619763135910034,0.10843774676322937,0.0014377142069861293,0.8504737019538879,-0.3967607915401459,10.661744117736816,0.002096708946431152,-0.0241492653953135,-1.8889671699485018,0.0,0.0,0.0,0.08180476055648381,0.04183043816336707,0.043332815170288086,-0.022928359825314826,0.001648140325408498,-0.0014377142069861293,-0.7954303904588226,0.5363257501046403,-10.661744117736816,-0.002096708946431152,0.0241492653953135,1.8889671699485018,0.22060754078670264,0.2710823986843593,10.202970348148959,0.0
1970/01/01 05:40:56.30316256,0,656022684,-0.31517723202705383,-0.5951347351074219,0.956710934638977,-0.27365028858184814,0.07857023179531097,0.009871752932667732,-1.1949454545974731,0.7460044622421265,9.619771003723145,0.00010230498790450455,-0.02600602379811376,-1.8837525040587895,0.0,0.0,0.0,0.08576970255640823,0.04072318897371274,0.04328906536102295,-0.0036022175782973176,0.03615232424344539,-0.009871752932667732,1.252311244558589,-0.6073692837995106,-9.619771003723145,-0.00010230498790450455,0.02600602379811376,1.8837525040587895,0.25145114774384786,0.39988454649165117,10.135131086158916,0.0
1970/01/01 05:40:56.60732576,0,656052798,-0.3247591555118561,-0.5914015173912048,0.9568529725074768,-0.24166753888130188,0.13852377235889435,0.0027376858051866293,1.4916224479675293,0.22801488637924194,9.886852264404297,-0.0015994347017410904,-0.024896101466576226,-1.886764160784328,0.0,0.0,0.0,0.08614217580778888,0.04089090382086269,0.04314702749252319,-0.033634066305705534,-0.01919554004074879,-0.0027376858051866293,-1.4319341795403628,-0.09030948805850483,-9.886852264404297,0.0015994347017410904,0.024896101466576226,1.886764160784328,0.1652306126436874,0.20100848456268386,10.036460095693648,0.0
1970/01/01 05:40:56.90489664,0,656082813,-0.33402377367019653,-0.5875111818313599,0.9572275876998901,-0.21326084434986115,0.08740690350532532,0.036243803799152374,-0.491080641746521,-1.1096726655960083,9.57326889038086,-0.0008670021965620423,-0.03340623457557949,-1.8815507096152375,0.0,0.0,0.0,0.08626365825756027,0.04105449363055669,0.04277241230010986,-0.06001310307361718,0.03649450627365024,-0.036243803799152374,0.5530412171742674,1.246333644225696,-9.57326889038086,0.0008670021965620423,0.03340623457557949,1.8815507096152375,0.19276719094335854,0.38974655161017363,10.050250435529282,0.0
1970/01/01 05:40:56.121221920,0,656112586,-0.34321752190589905,-0.5835434198379517,0.9579209685325623,-0.2754382789134979,0.12030148506164551,0.04058796539902687,0.14645077288150787,2.119981288909912,10.464471817016602,-0.003781099972945672,-0.030461902023327492,-1.881916976688723,0.0,0.0,0.0,0.09545740649326279,0.037086731637148485,0.042079031467437744,0.0021643314900196,0.003599924717330047,-0.04058796539902687,-0.08449019745376155,-1.9833203102802244,-10.464471817016602,0.003781099972945672,0.030461902023327492,1.881916976688723,0.23679314501466261,0.2102184450622627,9.863964276587456,0.0
1970/01/01 05:40:56.150389920,0,656142656,-0.35201436281204224,-0.5794935822486877,0.9590464234352112,-0.2024715542793274,0.10580632090568542,0.038009148091077805,0.41930267214775085,-1.4136735200881958,10.736499786376953,-0.0030722988576611524,-0.03159689619340134,-1.8767229719133791,0.0,0.0,0.0,0.09517995666279888,0.03724266469367066,0.04095357656478882,-0.06869939342546322,0.022632534679924377,-0.038009148091077805,-0.35508326445423555,1.5492592898565563,-10.736499786376953,0.0030722988576611524,0.03159689619340134,1.8767229719133791,0.36333238446839905,0.36838091249843175,9.997445057196316,0.0
1970/01/01 05:40:56.180473152,0,656172587,-0.3606208264827728,-0.5753777027130127,0.9603435397148132,-0.24620062112808228,0.11878502368927002,0.05295729264616966,0.05040104687213898,1.3790043592453003,9.289743423461914,-0.0037175603849604164,-0.031032478272707876,-1.8755103863952827,0.0,0.0,0.0,0.09478348449435992,0.03748320665907956,0.03965646028518677,-0.02279203244916167,0.014155437407596339,-0.05295729264616966,0.016077193087145183,-1.244493798338267,-9.289743423461914,0.0037175603849604164,0.031032478272707876,1.8755103863952827,0.1781371890290755,0.3101630096012953,9.804235433690748,0.0
1970/01/01 05:40:56.215790720,0,656192592,-0.3660590946674347,-0.5725693702697754,0.9613096117973328,-0.23287621140480042,0.13031700253486633,0.06659460067749023,0.7544177174568176,-0.858485221862793,9.91324234008789,-0.005179562278969703,-0.031573090891026154,-1.8745079446074704,0.0,0.0,0.0,0.09129268155091802,0.039180751895711796,0.038690388202667236,-0.033862853636037915,0.007089223777878989,-0.06659460067749023,-0.6856806452317645,0.9919205739084992,-9.91324234008789,0.005179562278969703,0.031573090891026154,1.8745079446074704,0.2727180165201438,0.2966471546437827,9.460751543313556,0.0
1970/01/01 05:40:56.240489920,0,656232571,-0.3767477571964264,-0.5668783187866211,0.9630035758018494,-0.2269076406955719,0.10023824870586395,0.04560920223593712,-0.8232428431510925,0.5281460881233215,8.999608039855957,-0.009172450515950413,-0.03289060209346833,-1.8730262302289675,0.0,0.0,0.0,0.0931286347616771,0.03814381493138341,0.036996424198150635,-0.03750370797500907,0.04159563968756319,-0.04560920223593712,0.8941673927514515,-0.3959243541166344,-8.999608039855957,0.009172450515950413,0.03289060209346833,1.8730262302289675,0.05857084241047616,0.34761305603402803,9.831527424636032,0.0
1970/01/01 05:40:56.270599392,0,656252694,-0.38191646337509155,-0.5639792680740356,0.9636062979698181,-0.2504212558269501,0.1241421028971672,0.05529110133647919,0.4760550856590271,1.2598286867141724,9.889382362365723,-0.010322579933292038,-0.031951044585277,-1.8695926561874623,0.0,0.0,0.0,0.08952343667712781,0.04004579177522816,0.036393702030181885,-0.01158950634786593,0.02207890482791347,-0.05529110133647919,-0.4029444455134889,-1.1288232608216462,-9.889382362365723,0.010322579933292038,0.031951044585277,1.8695926561874623,0.3015452961516894,0.32877024616593364,9.64065172369498,0.0
1970/01/01 05:40:56.303148416,0,656292626,-0.391838937997818,-0.5580095648765564,0.9647296071052551,-0.1896539181470871,0.11272402107715607,-0.010383667424321175,0.20729990303516388,-1.11436927318573,10.739435195922852,-0.011450345754721517,-0.03272461814619743,-1.8728435821262577,0.0,0.0,0.0,0.09075324108124594,0.039022677718504095,0.03527039289474487,-0.06988338784712467,0.0378435623757728,0.010383667424321175,-0.13200317234444647,1.2441583909640954,-10.739435195922852,0.011450345754721517,0.03272461814619743,1.8728435821262577,0.14994213095659129,0.3226406172262221,10.235602691601798,0.0
1970/01/01 05:40:56.334364320,0,656322493,-0.39916205406188965,-0.553391695022583,0.9652238488197327,-0.221280038356781,0.12064743041992188,0.02794722281396389,0.21826212108135223,0.5506671667098999,8.273431777954102,-0.01236511786308432,-0.03505546305373651,-1.8676312790943015,0.0,0.0,0.0,0.08946734988182947,0.03949560700423127,0.034776151180267334,-0.035710982722202966,0.0342261167588557,-0.02794722281396389,-0.14079345454391717,-0.4221179993096933,-8.273431777954102,0.01236511786308432,0.03505546305373651,1.8676312790943015,0.21105127181126385,0.36960233238525125,9.791496802751142,0.0
1970/01/01 05:40:56.360606656,0,656352781,-0.40623709559440613,-0.5487905740737915,0.9655359983444214,-0.1819712519645691,0.14020836353302002,-0.011005887761712074,1.3637715578079224,-1.0050828456878662,10.36926555633545,-0.012268431720032062,-0.03446721961681729,-1.871378402802406,0.0,0.0,0.0,0.09654239141434595,0.034894486055439766,0.03446400165557861,-0.07501976911441488,0.014665183645757557,0.011005887761712074,-1.2863028912704872,1.1336320130880728,-10.36926555633545,0.012268431720032062,0.03446721961681729,1.871378402802406,0.13044324112051786,0.2747423499399294,10.02520496442127,0.0
1970/01/01 05:40:56.391731840,0,656382587,-0.41309964656829834,-0.5440507531166077,0.9657668471336365,-0.19873113930225372,0.11564335227012634,0.03189941495656967,-0.31291133165359497,-0.08512304723262787,8.145604133605957,-0.011314066096467615,-0.03885046869498919,-1.8686486471804071,0.0,0.0,0.0,0.09488200289779464,0.03538828241022929,0.034233152866363525,-0.055642517121989976,0.04349262532659934,-0.03189941495656967,0.39248454440057956,0.2123197049093081,-8.145604133605957,0.011314066096467615,0.03885046869498919,1.8686486471804071,0.09624429225129429,0.3654537605758641,10.124320197623751,0.0
1970/01/01 05:40:56.427835200,0,656412652,-0.41980627179145813,-0.5392746925354004,0.9656894207000732,-0.19808048009872437,0.14020396769046783,-0.0010681780986487865,0.7613787055015564,0.3677159249782562,9.971467018127441,-0.008339130296136772,-0.03863614837390952,-1.8677453544776081,0.0,0.0,0.0,0.09315410331134066,0.03598716876063646,0.03431057929992676,-0.053605660130460586,0.02314935666675516,0.0010681780986487865,-0.6797009465450222,-0.24187177702510237,-9.971467018127441,0.008339130296136772,0.03863614837390952,1.8677453544776081,0.17380325037006963,0.3150818373866946,10.139347595233321,0.0
1970/01/01 05:40:56.450465664,0,656432574,-0.42415520548820496,-0.5360613465309143,0.9656959772109985,-0.19791358709335327,0.13056954741477966,-0.006521227303892374,-0.5833382606506348,0.19444242119789124,10.541170120239258,-0.006139596902529872,-0.037014949207636136,-1.8704210683742604,0.0,0.0,0.0,0.0891592652639811,0.038288596518823714,0.034304022789001465,-0.051014885400454735,0.03695604004548969,0.006521227303892374,0.6671205658167185,-0.06995078296826372,-10.541170120239258,0.006139596902529872,0.037014949207636136,1.8704210683742604,0.17305349826432728,0.36909778261243004,10.18951307041414,0.0
1970/01/01 05:40:56.480595328,0,656472658,-0.4327181875705719,-0.529489278793335,0.9660831689834595,-0.20393289625644684,0.1302105188369751,0.004426386673003435,0.4459855258464813,0.1912224292755127,10.152170181274414,0.0004327432219074385,-0.04047125006388015,-1.8627955806596574,0.0,0.0,0.0,0.08947156623357849,0.03736962539698657,0.03391683101654053,-0.04216795819078087,0.041441955775747275,-0.004426386673003435,-0.3601316420579339,-0.06813118747618897,-10.152170181274414,-0.0004327432219074385,0.04047125006388015,1.8627955806596574,0.2518894995673574,0.4526846071742728,10.01902686043302,0.0
