time,sec,nsecs,x_curr,y_curr,z_curr,x_dot_curr,y_dot_curr,z_dot_curr,x_ddot_curr,y_ddot_curr,z_ddot_curr,roll_curr,pitch_curr,yaw_curr,roll_dot_curr,pitch_dot_curr,yaw_dot_curr,tau_x,tau_y,tau_z,collective_thrust
2026/01/04 17:13:01.924799592,0,0,-0.24037887156009674,-0.40862175822257996,1.0208624601364136,0.4704110026359558,0.06841208040714264,-0.08785641938447952,0.06530929356813431,0.15176324546337128,9.395812034606934,-0.11377991340277895,-0.07306988361175684,-2.8242369297339147,0.0,0.0,0.0,0.6339829802770025,-0.8833037479138225,10.408452912145023,0.0
2026/01/04 17:13:01.953835464,0,0,-0.2299036979675293,-0.4057644009590149,1.0193549394607544,0.4527381956577301,0.07653595507144928,-0.06843017041683197,0.016215477138757706,0.3627305030822754,9.537742614746094,-0.11414491042405935,-0.07558678636482093,-2.8216139449699376,0.0,0.0,0.0,0.6483561854361646,-0.8172343591263322,10.410297115224212,0.0
2026/01/04 17:13:01.988440904,0,0,-0.2162681668996811,-0.40226390957832336,1.0179182291030884,0.42023324966430664,0.08672350645065308,-0.032009560614824295,0.5960617661476135,0.6183336973190308,9.683745384216309,-0.11380358863266687,-0.07325303839382707,-2.8184001379053734,0.0,0.0,0.0,0.7378439374980477,-0.8528580576236586,10.181083376504619,0.0
2026/01/04 17:13:02.16919304,0,0,-0.20609770715236664,-0.3998139202594757,1.0173226594924927,0.4058364927768707,0.10997515171766281,-0.006887972354888916,1.174433946609497,-1.6067931652069092,10.85594367980957,-0.11192121222742674,-0.06944328199083047,-2.817486235968681,0.0,0.0,0.0,0.7921718520972335,-0.9910147679241098,9.750100110028693,0.0
2026/01/04 17:13:02.44492264,0,0,-0.1993972361087799,-0.39822545647621155,1.0170978307724,0.4126894474029541,0.09827910363674164,-0.012235191650688648,1.3308509588241577,-2.4188268184661865,10.698989868164062,-0.1078997891755301,-0.0658445387146347,-2.8173227895160604,0.0,0.0,0.0,0.8196509181131271,-0.9884921193859462,9.750304751958529,0.0
2026/01/04 17:13:02.82306408,0,0,-0.18946874141693115,-0.3960101306438446,1.0171456336975098,0.4298580586910248,0.08325375616550446,0.0029156922828406096,-0.11842025071382523,-1.732563853263855,10.456104278564453,-0.10265306196939361,-0.06359507268464401,-2.8161882730789696,0.0,0.0,0.0,0.7367392271709836,-0.9295007297917737,9.65161590340045,0.0
2026/01/04 17:13:02.105679880,0,0,-0.17939206957817078,-0.39405784010887146,1.0176602602005005,0.4248815178871155,0.05458204448223114,0.007852270267903805,0.2782684564590454,-1.3149110078811646,10.295660972595215,-0.09966138139831167,-0.06761105161506313,-2.815481810559295,0.0,0.0,0.0,0.7673219877964569,-0.9300816266243949,9.651506987113502,0.0
2026/01/04 17:13:02.134047944,0,0,-0.1658509373664856,-0.39176198840141296,1.0186967849731445,0.40458983182907104,0.05144193768501282,0.026414066553115845,0.822510302066803,-2.0057663917541504,10.659807205200195,-0.10224014529307385,-0.07209232245262381,-2.810779365794068,0.0,0.0,0.0,0.755749735430643,-0.8180443232769367,9.459596894443749,0.0
2026/01/04 17:13:02.164232584,0,0,-0.15913768112659454,-0.39068669080734253,1.0193184614181519,0.39907294511795044,0.03876794874668121,0.019762251526117325,1.0746787786483765,-0.702110767364502,9.684228897094727,-0.10376261701878317,-0.07319409579516123,-2.8086791253213446,0.0,0.0,0.0,0.8328358178463293,-0.8061061011299332,9.376843118788594,0.0
2026/01/04 17:13:02.193652904,0,0,-0.14923086762428284,-0.38911202549934387,1.0202726125717163,0.40220510959625244,0.04383482784032822,0.016317352652549744,1.1741271018981934,-0.8289331793785095,9.384208679199219,-0.10726180164719884,-0.07466970068457036,-2.8054612134174897,0.0,0.0,0.0,0.8511917886737959,-0.7873017164341025,9.454769217878452,0.0
2026/01/04 17:13:02.225754792,0,0,-0.13944222033023834,-0.38752520084381104,1.021069884300232,0.39662763476371765,0.038115937262773514,0.002164807403460145,0.9013732671737671,-0.3709412217140198,8.907381057739258,-0.10954455921526064,-0.07735496875397209,-2.80335704814362,0.0,0.0,0.0,0.9304884291437578,-0.783923175482552,9.517447910913472,0.0
2026/01/04 17:13:02.255205544,0,0,-0.12966981530189514,-0.3858700394630432,1.0215041637420654,0.39860254526138306,0.03816772252321243,-0.010181430727243423,0.9911206364631653,0.15271563827991486,8.708731651306152,-0.10925185531165499,-0.08071243645615123,-2.8004990302746497,0.0,0.0,0.0,0.9850559379717008,-0.7771324807450493,9.68704740336712,0.0
2026/01/04 17:13:02.285101608,0,0,-0.11975143849849701,-0.3841931223869324,1.0215773582458496,0.402974396944046,0.05185878649353981,-0.011985426768660545,0.416392982006073,0.04540496692061424,8.877580642700195,-0.10816953207152291,-0.0881500747060625,-2.7977480491561373,0.0,0.0,0.0,1.0416063122726484,-0.813618816354276,9.69241413081631,0.0
2026/01/04 17:13:02.313574888,0,0,-0.10630150139331818,-0.38200902938842773,1.0211888551712036,0.3946631848812103,0.0476774126291275,-0.019431745633482933,0.5321518778800964,-0.010025455616414547,8.977357864379883,-0.10682153149335859,-0.10329699567832511,-2.793814360836326,0.0,0.0,0.0,1.1050912004542806,-0.8392227835532649,9.714403427646985,0.0
2026/01/04 17:13:02.343615112,0,0,-0.09952036291360855,-0.38092997670173645,1.0208113193511963,0.39026159048080444,0.05076933279633522,-0.014944486320018768,1.0788174867630005,-0.3126051127910614,9.281898498535156,-0.10665365427190922,-0.110549368137176,-2.7900120648858184,0.0,0.0,0.0,1.194972928060528,-0.8254967039589971,9.785062822967902,0.0
2026/01/04 17:13:02.373997736,0,0,-0.0892709270119667,-0.3793800473213196,1.0201078653335571,0.3883123993873596,0.0634700283408165,-0.008726452477276325,1.375543236732483,-1.4873466491699219,10.056076049804688,-0.10867501115974153,-0.11972787916615396,-2.7851096885109317,0.0,0.0,0.0,1.2304235524365206,-0.8857091274902419,9.686957533284907,0.0
2026/01/04 17:13:02.403632552,0,0,-0.07542015612125397,-0.3773697018623352,1.0191230773925781,0.4003649652004242,0.05711386352777481,-0.0129197733476758,2.160331964492798,-1.8858658075332642,10.337300300598145,-0.11253330764519182,-0.1273389068638471,-2.777879374237414,0.0,0.0,0.0,1.2121679548507676,-0.8574796317438047,9.739786769437057,0.0
2026/01/04 17:13:02.433619048,0,0,-0.06832056492567062,-0.3764113187789917,1.0186035633087158,0.4176364541053772,0.054792292416095734,-0.01687176711857319,1.7786864042282104,-2.2967846393585205,10.747119903564453,-0.11588067830427579,-0.13040347925850318,-2.774414346656885,0.0,0.0,0.0,1.1249628553043316,-0.8642678083900023,9.776529360025423,0.0
2026/01/04 17:13:02.463583592,0,0,-0.05368673801422119,-0.37456580996513367,1.0177119970321655,0.4508720636367798,0.02459324337542057,-0.03932277485728264,1.3337116241455078,-1.070227861404419,10.078582763671875,-0.12136654115918712,-0.1329542508824905,-2.767181106433675,0.0,0.0,0.0,1.0510253713088136,-0.7703967163259761,9.989908527248307,0.0
2026/01/04 17:13:02.496566440,0,0,-0.0425221286714077,-0.3730974793434143,1.0170984268188477,0.45072486996650696,0.035679060965776443,-0.0355069562792778,0.2864372134208679,-0.02068081870675087,9.220684051513672,-0.1236950205537464,-0.12950735151406026,-2.7626864909770426,0.0,0.0,0.0,1.025470426172345,-0.78940208115355,10.008595462282694,0.0
2026/01/04 17:13:02.523920808,0,0,-0.03492900729179382,-0.3720972537994385,1.0166817903518677,0.4399366080760956,0.048025477677583694,-0.02908484824001789,0.6189566850662231,-0.26516300439834595,8.9585599899292,-0.1241843369615665,-0.1261166580269392,-2.7604149617294067,0.0,0.0,0.0,1.0970337107168937,-0.8538222298922582,9.907603922326397,0.0
2026/01/04 17:13:02.554936776,0,0,-0.023388849571347237,-0.3704967498779297,1.0159162282943726,0.4390970766544342,0.05765649676322937,-0.02267938293516636,0.8864496946334839,-0.731039822101593,9.325623512268066,-0.12255589104020398,-0.11857337073027421,-2.7573537416458307,0.0,0.0,0.0,1.094509136056723,-0.8914898462921073,9.855920837398982,0.0
2026/01/04 17:13:02.583724648,0,0,-0.011639324948191643,-0.36876386404037476,1.0150902271270752,0.45384880900382996,0.059519700706005096,-0.02762492746114731,0.8512770533561707,-1.530130386352539,10.082128524780273,-0.12214228652858357,-0.11390507311354052,-2.7529878978200886,0.0,0.0,0.0,1.0362334728414957,-0.9018136907355884,9.90941163445429,0.0
2026/01/04 17:13:02.614872584,0,0,0.0044934628531336784,-0.3663860559463501,1.0139402151107788,0.4860784411430359,0.03140611946582794,-0.06001361832022667,0.48250827193260193,-0.7235633730888367,9.71672248840332,-0.12032569593965388,-0.11362579328521406,-2.7467353743958878,0.0,0.0,0.0,1.0054077786636268,-0.8642090362296466,10.032189118653497,0.0
2026/01/04 17:13:02.645643784,0,0,0.01677352376282215,-0.3645569682121277,1.0131031274795532,0.4810425639152527,0.03555105999112129,-0.047376394271850586,-0.08253197371959686,0.9406994581222534,8.952594757080078,-0.1175365484551848,-0.11312272886985919,-2.742137438333523,0.0,0.0,0.0,0.9274320285128175,-0.7907494373120193,10.269658309096934,0.0
2026/01/04 17:13:02.676926888,0,0,0.025170665234327316,-0.36336076259613037,1.0124835968017578,0.4531179368495941,0.060618285089731216,-0.025604253634810448,0.4539433717727661,0.4450915455818176,8.957029342651367,-0.11678902773153567,-0.11351038945255347,-2.7393928789822373,0.0,0.0,0.0,1.0530248344012898,-0.9265313186690344,9.915923752695928,0.0
2026/01/04 17:13:02.706886440,0,0,0.037895940244197845,-0.3615235686302185,1.0114909410476685,0.44571739435195923,0.06858118623495102,-0.024859081953763962,1.8345210552215576,-1.8433934450149536,10.219440460205078,-0.11555840391215104,-0.10860028923915435,-2.7357290262620957,0.0,0.0,0.0,1.0538321755245827,-0.9273386597923273,9.91600952411206,0.0
2026/01/04 17:13:02.739177224,0,0,0.055086661130189896,-0.35894477367401123,1.0102370977401733,0.5021070837974548,0.04959069564938545,-0.05023248866200447,0.7682187557220459,-1.1115139722824097,9.812898635864258,-0.11350806062012041,-0.10453067401015696,-2.7286389038543932,0.0,0.0,0.0,0.9172490389938851,-0.9048169012041919,10.066208488380898,0.0
2026/01/04 17:13:02.767240488,0,0,0.063730388879776,-0.35756903886795044,1.0096675157546997,0.4961935877799988,0.03897533193230629,-0.05093551054596901,-0.03861634433269501,0.44748634099960327,9.10405445098877,-0.11135188722589992,-0.1041251045972162,-2.726923846718772,0.0,0.0,0.0,0.8584622821617252,-0.9078301725748634,10.164509944068291,0.0
2026/01/04 17:13:02.797335752,0,0,0.07674483209848404,-0.3554782271385193,1.0087759494781494,0.4523072838783264,0.0484011247754097,-0.031883109360933304,1.3598910570144653,-0.33113619685173035,9.460087776184082,-0.11181834307239412,-0.10295051439869525,-2.7216920453456415,0.0,0.0,0.0,0.9562349077162547,-0.8734780637937553,10.140140317941995,0.0
2026/01/04 17:13:02.841900520,0,0,0.09433305263519287,-0.352695494890213,1.0075321197509766,0.4518493413925171,0.07445023208856583,-0.02829713188111782,2.1151554584503174,-2.2645456790924072,10.114588737487793,-0.11496024262908844,-0.09538874515033158,-2.7147851420685085,0.0,0.0,0.0,1.0470274334652165,-0.9823164996639416,9.923563220718352,0.0
2026/01/04 17:13:02.856800456,0,0,0.10311756283044815,-0.35131213068962097,1.0069180727005005,0.48059189319610596,0.05464908108115196,-0.04067672789096832,0.9048442244529724,-1.2798535823822021,9.460758209228516,-0.11610109139348755,-0.09258501213165114,-2.712798146317876,0.0,0.0,0.0,1.038438861174755,-0.9554000415367938,9.988422532541664,0.0
2026/01/04 17:13:02.883579304,0,0,0.1163126602768898,-0.34921085834503174,1.0060930252075195,0.4725223779678345,0.050689101219177246,-0.037546053528785706,0.3583928644657135,-0.5771990418434143,9.418106079101562,-0.1187448909748734,-0.0905612160517269,-2.7086834800083555,0.0,0.0,0.0,1.0201058269313854,-0.9406491967000197,10.097454344606493,0.0
2026/01/04 17:13:02.915690888,0,0,0.13384947180747986,-0.3463155925273895,1.0049151182174683,0.45480719208717346,0.05495245382189751,-0.03767210990190506,1.5283693075180054,-1.067613959312439,9.752982139587402,-0.12392028315294679,-0.08657372163085342,-2.701359831740176,0.0,0.0,0.0,1.1835473113175488,-1.035559712970897,10.054116045012217,0.0
2026/01/04 17:13:02.943726280,0,0,0.1427440494298935,-0.34491604566574097,1.0043226480484009,0.45597830414772034,0.0607738122344017,-0.040508050471544266,1.1872495412826538,-0.9583361744880676,9.206409454345703,-0.12412984900311999,-0.08520487996505656,-2.699404902284355,0.0,0.0,0.0,1.1785329523340191,-1.110649370962486,10.131841042453937,0.0
2026/01/04 17:13:02.973702568,0,0,0.156081423163414,-0.3428775668144226,1.0033601522445679,0.46473070979118347,0.061299145221710205,-0.02905084192752838,0.8295851945877075,-1.5118807554244995,10.158658027648926,-0.12659762935518906,-0.08607740913161911,-2.696816927685363,0.0,0.0,0.0,1.0690157592538043,-1.019731820857784,10.035399415926673,0.0
2026/01/04 17:13:03.4779880,0,0,0.17395243048667908,-0.3403216302394867,1.0021347999572754,0.46573057770729065,0.038132715970277786,-0.044403109699487686,1.3984661102294922,-1.4278379678726196,10.120352745056152,-0.13285558012112947,-0.08959854695227487,-2.689689264340822,0.0,0.0,0.0,0.8797794350961626,-0.7841933637175543,10.188698318041,0.0
2026/01/04 17:13:03.37015752,0,0,0.18288390338420868,-0.33905768394470215,1.0015846490859985,0.46138644218444824,0.041309889405965805,-0.04020849987864494,1.240167260169983,-0.5895379781723022,9.188299179077148,-0.13337174070211866,-0.09123524080043942,-2.687291375580714,0.0,0.0,0.0,0.5700700967154416,-0.44098591560075767,10.155378592464759,0.0
2026/01/04 17:13:03.65330632,0,0,0.19634763896465302,-0.33723291754722595,1.0007481575012207,0.4606279134750366,0.05803034082055092,-0.024994438514113426,0.8984269499778748,-1.7480653524398804,9.793468475341797,-0.13397915281764122,-0.09161376588436732,-2.684865441223556,0.0,0.0,0.0,0.36606052556066865,-0.30870857984341865,10.02322473891232,0.0
2026/01/04 17:13:03.93749288,0,0,0.20979861915111542,-0.3354684114456177,0.9999174475669861,0.450409471988678,0.045282501727342606,-0.029959186911582947,0.8018423914909363,-1.8724353313446045,9.500565528869629,-0.132963007244464,-0.09088163537446906,-2.6811774716572754,0.0,0.0,0.0,1.5909226440498014,-1.4388351751701056,10.076960215943624,0.0
2026/01/04 17:13:03.123644040,0,0,0.22746725380420685,-0.33311378955841064,0.9988343119621277,0.4417983889579773,0.05805472657084465,-0.028622299432754517,2.3646023273468018,-1.982792615890503,10.08781623840332,-0.11936770851719262,-0.07793166545140792,-2.676840015840808,0.0,0.0,0.0,2.3066090440772737,-2.1438585866997992,10.0102987308663,0.0
2026/01/04 17:13:03.154321160,0,0,0.2406579703092575,-0.3313717246055603,0.9983484745025635,0.4867561161518097,0.042581040412187576,-0.012010992504656315,-0.2691251337528229,-0.41749951243400574,10.632539749145508,-0.10924506159967541,-0.07329672096197772,-2.677271511808054,0.0,0.0,0.0,2.789897628865694,-2.78672088786158,10.070422196967993,0.0
2026/01/04 17:13:03.183702248,0,0,0.24969671666622162,-0.3303322494029999,0.9985361099243164,0.4827927350997925,0.029871778562664986,0.0013412082334980369,0.915581464767456,-1.2498799562454224,11.655019760131836,-0.11071329364782256,-0.07679562394233254,-2.675687132332285,0.0,0.0,0.0,1.4430935627415866,-1.3655127623506842,9.801725049823474,0.0
2026/01/04 17:13:03.214295368,0,0,0.2684936821460724,-0.32885506749153137,1.000651478767395,0.49934157729148865,0.01889164000749588,0.07182855159044266,1.4588066339492798,-2.8069400787353516,12.013521194458008,-0.14202241281416292,-0.10284397318089482,-2.6716125450029304,0.0,0.0,0.0,-0.8105730061956355,0.9149757828535963,9.234665171106009,0.0
2026/01/04 17:13:03.243707976,0,0,0.28338348865509033,-0.3284159302711487,1.003607988357544,0.4686833918094635,0.017689768224954605,0.14861389994621277,0.718741774559021,-1.741573452949524,10.882341384887695,-0.1835133647050304,-0.12812372902458813,-2.671959290166783,0.0,0.0,0.0,-3.3445198839435966,3.420460058049806,8.978202816745158,0.0
2026/01/04 17:13:03.273644232,0,0,0.2933894693851471,-0.3284028172492981,1.006186604499817,0.4877675175666809,-0.010799656622111797,0.143805593252182,1.4570204019546509,-1.5793246030807495,10.835342407226562,-0.20858415352346824,-0.13575383926198464,-2.673427315567758,0.0,0.0,0.0,-6.919047001547508,7.068901941085648,6.793924781574493,0.0
2026/01/04 17:13:03.303849928,0,0,0.31304457783699036,-0.32903748750686646,1.0122663974761963,0.45403486490249634,-0.036239784210920334,0.16811923682689667,2.0595862865448,-1.77143394947052,10.168390274047852,-0.23142293681356707,-0.10814863400951875,-2.6804353067481794,0.0,0.0,0.0,-6.424259910406691,6.6540585322187225,7.645416251150009,0.0
2026/01/04 17:13:03.333860040,0,0,0.3226540982723236,-0.32986149191856384,1.015152931213379,0.4671444594860077,-0.04249484837055206,0.14825409650802612,-0.8780910968780518,-1.592203974723816,8.564420700073242,-0.23255968698172708,-0.07582712340672818,-2.688234065821867,0.0,0.0,0.0,-5.088546417603457,5.434231360461246,8.28987344143303,0.0
2026/01/04 17:13:03.363960968,0,0,0.33654341101646423,-0.33169037103652954,1.0185110569000244,0.42783573269844055,-0.03295353055000305,0.11046727001667023,1.239967942237854,-3.0726327896118164,8.267301559448242,-0.21818865684068456,0.0018843260449728394,-2.69804531714182,0.0,0.0,0.0,-0.8985373141311217,1.3718904866718018,8.605210761619135,0.0
2026/01/04 17:13:03.393857032,0,0,0.35374030470848083,-0.33458229899406433,1.0206459760665894,0.3952810764312744,-0.06958421319723129,0.018952487036585808,-0.5125008225440979,-0.0015507946955040097,7.417834758758545,-0.1603797275892604,0.11766325281865063,-2.703849153992866,0.0,0.0,0.0,0.9854406397781534,-0.21459815431594897,9.192189138076317,0.0
2026/01/04 17:13:03.423721640,0,0,0.36560484766960144,-0.3364613354206085,1.0206100940704346,0.3525267243385315,-0.029459362849593163,0.025407545268535614,-0.6766623258590698,-1.8048386573791504,9.817049026489258,-0.0916662696005664,0.18619085550416292,-2.710780950760625,0.0,0.0,0.0,0.5189803640880454,0.2181532627586305,9.60033801952974,0.0
2026/01/04 17:13:03.453741480,0,0,0.3732466399669647,-0.33752909302711487,1.0205799341201782,0.34868675470352173,-0.027350448071956635,0.010991481132805347,-0.2935907542705536,-1.8119847774505615,11.444389343261719,-0.039352040945475855,0.20124276725168583,-2.71647576618028,0.0,0.0,0.0,0.07982382775278961,0.6789140826822069,9.501125795388562,0.0
2026/01/04 17:13:03.485614536,0,0,0.387315571308136,-0.3391741216182709,1.0221394300460815,0.31166550517082214,-0.04282098636031151,0.0766039714217186,-0.45328420400619507,1.4359216690063477,11.128541946411133,0.04509254511080063,0.15268919156295527,-2.728127898958329,0.0,0.0,0.0,-0.9830402832450136,1.8932939513598979,9.089905880110436,0.0
2026/01/04 17:13:03.515225448,0,0,0.3964361846446991,-0.3400125205516815,1.025072693824768,0.3246207535266876,-0.04452028125524521,0.10710421204566956,-0.5950403213500977,1.3218730688095093,10.499073028564453,0.07601130879516693,0.08386463832603269,-2.7337659146212756,0.0,0.0,0.0,-0.848462037269144,1.8587051947830613,8.744855671345546,0.0
2026/01/04 17:13:03.543823112,0,0,0.40168026089668274,-0.34011560678482056,1.027693510055542,0.2531895041465759,0.0020845786202698946,0.14438308775424957,1.0909452438354492,-0.1332596242427826,10.224552154541016,0.08361598896858508,0.037298546136802016,-2.739852661220256,0.0,0.0,0.0,-0.5984237797717086,1.6317185304238297,8.204813260966919,0.0
2026/01/04 17:13:03.574595368,0,0,0.4084528386592865,-0.3393145799636841,1.0322531461715698,0.17789289355278015,0.06183803454041481,0.1612212359905243,2.27374267578125,-1.9431761503219604,10.660823822021484,0.08733723216864857,-0.01787665605454379,-2.7480308498139783,0.0,0.0,0.0,-0.06072656027678657,1.1861506754446047,8.006185855849706,0.0
2026/01/04 17:13:03.604262664,0,0,0.4136148989200592,-0.33711355924606323,1.0369764566421509,0.15427935123443604,0.0768544003367424,0.1487644910812378,1.0123759508132935,0.10671185702085495,8.998796463012695,0.0890283775597657,-0.05235807243034284,-2.753864119435527,0.0,0.0,0.0,0.16982689010786065,0.9934559261570591,8.075515215394942,0.0
2026/01/04 17:13:03.635365512,0,0,0.4175283908843994,-0.33344224095344543,1.0414445400238037,0.08861059695482254,0.16066507995128632,0.14910951256752014,0.6414374709129333,-0.8543822765350342,8.921760559082031,0.09307479921607832,-0.0641434793001978,-2.7539637519888203,0.0,0.0,0.0,0.32069210634444467,0.8165371529560598,8.029348611017932,0.0
2026/01/04 17:13:03.665805608,0,0,0.420300155878067,-0.3282017111778259,1.0452064275741577,0.0790494754910469,0.19990935921669006,0.11275476962327957,0.6043639779090881,-0.8007947206497192,8.76654052734375,0.09920511370769007,-0.05924122216798818,-2.754961625659946,0.0,0.0,0.0,0.30785257148675144,0.7313322528364843,8.327756374803407,0.0
2026/01/04 17:13:03.696167176,0,0,0.4221864640712738,-0.32138147950172424,1.0480395555496216,0.06362884491682053,0.25149431824684143,0.07854560762643814,0.9256771206855774,-1.190418004989624,9.134750366210938,0.10405376541814886,-0.0506037194494423,-2.7538850377907864,0.0,0.0,0.0,0.2714891523843415,0.6749263100092573,8.6153199329729,0.0
2026/01/04 17:13:03.723985960,0,0,0.4235038459300995,-0.31306782364845276,1.0497604608535767,0.019342884421348572,0.31411799788475037,0.05201496183872223,1.5528137683868408,-2.523833751678467,9.927925109863281,0.10501044142364674,-0.046144139438838425,-2.7534876155005543,0.0,0.0,0.0,0.4311425379157951,0.4518649457586322,8.84292129544787,0.0
2026/01/04 17:13:03.754126920,0,0,0.42454174160957336,-0.29979845881462097,1.0503885746002197,-0.022337263450026512,0.36670053005218506,0.003341617062687874,1.9452495574951172,-1.811053991317749,9.44753646850586,0.09915227273754718,-0.05168855283374982,-2.752423783562177,0.0,0.0,0.0,0.5249391760699222,0.3304308748183217,9.039828003931644,0.0
2026/01/04 17:13:03.783782184,0,0,0.4248603284358978,-0.28826797008514404,1.049728274345398,-0.027835551649332047,0.4061054587364197,-0.03246146813035011,1.5022319555282593,-0.8701460957527161,8.95280933380127,0.08867658221699766,-0.061358789834077304,-2.750712861119127,0.0,0.0,0.0,0.6130845997188811,0.2357807497249171,9.40347929411156,0.0
2026/01/04 17:13:03.814854888,0,0,0.42490312457084656,-0.27994009852409363,1.0487765073776245,-0.02796410210430622,0.4281090497970581,-0.05868532136082649,0.6258877515792847,-0.9683608412742615,8.793450355529785,0.07761815901725726,-0.06888223598792788,-2.750769621269844,0.0,0.0,0.0,0.6347506146092634,0.03041198219995953,9.87165176368163,0.0
2026/01/04 17:13:03.844387400,0,0,0.424600213766098,-0.26647841930389404,1.046562671661377,-0.03168967738747597,0.4556041657924652,-0.09993007034063339,0.17134316265583038,-0.5154880285263062,8.616775512695312,0.05809273720524995,-0.08073364459215698,-2.7512968919792042,0.0,0.0,0.0,0.6437492779441092,-0.0414631210189146,10.272670987367578,0.0
2026/01/04 17:13:03.874347112,0,0,0.4236385226249695,-0.24698397517204285,1.0424097776412964,-0.05796721950173378,0.5196056365966797,-0.11574465781450272,0.1710330694913864,-0.49945202469825745,8.811820983886719,0.028583030718353154,-0.09340613503288646,-2.7489886672945367,0.0,0.0,0.0,0.7360187611739835,-0.2917168633650512,10.458270518204536,0.0
2026/01/04 17:13:03.903857512,0,0,0.42262002825737,-0.23130956292152405,1.0387977361679077,-0.07274613529443741,0.5504785776138306,-0.1231045350432396,0.7834206223487854,-1.872321367263794,9.670384407043457,0.007379216971650311,-0.09586961081545159,-2.7480211174771685,0.0,0.0,0.0,0.7745232136181854,-0.3739352014294839,10.503870215087336,0.0
2026/01/04 17:13:03.933715944,0,0,0.42178547382354736,-0.22039750218391418,1.0362884998321533,-0.05822894722223282,0.5532605648040771,-0.12741605937480927,0.6862720847129822,-1.7091084718704224,9.986183166503906,-0.004957441090654834,-0.0946081200904748,-2.747032700632711,0.0,0.0,0.0,0.7370981244198876,-0.39387270087521464,10.624624598232103,0.0
2026/01/04 17:13:03.964231592,0,0,0.42086637020111084,-0.2091652899980545,1.0338478088378906,-0.04219654202461243,0.5563328266143799,-0.133295476436615,-0.21537339687347412,-0.7475385665893555,9.942277908325195,-0.01714537538322543,-0.0927982459919407,-2.745238521777244,0.0,0.0,0.0,0.686498113005698,-0.4110783496790254,10.704155369468863,0.0
2026/01/04 17:13:03.993871688,0,0,0.4188530743122101,-0.18587300181388855,1.029186725616455,-0.0789133682847023,0.5845922827720642,-0.11134956777095795,1.1252857446670532,-0.506961464881897,10.056193351745605,-0.03795473688734058,-0.0848162326174625,-2.741858613424521,0.0,0.0,0.0,0.7812438782488431,-0.4583131916259549,10.604614787000981,0.0
2026/01/04 17:13:04.24103720,0,0,0.417219340801239,-0.16790653765201569,1.0261732339859009,-0.07487717270851135,0.6249315142631531,-0.08793511986732483,1.1296236515045166,-1.9795589447021484,10.962228775024414,-0.05073243754706612,-0.07462380063316114,-2.739644750730522,0.0,0.0,0.0,0.8124090936855863,-0.6855376985744808,10.358432498990764,0.0
2026/01/04 17:13:04.53732520,0,0,0.4151137173175812,-0.14359036087989807,1.0229915380477905,-0.05400054529309273,0.6063963770866394,-0.09046795219182968,-0.5058049559593201,-1.0976861715316772,10.501248359680176,-0.05972864684465793,-0.0698342680232964,-2.739613699271571,0.0,0.0,0.0,0.7182148952315407,-0.6864779495725952,10.375573478079056,0.0
2026/01/04 17:13:04.83689224,0,0,0.41353243589401245,-0.12515367567539215,1.0213251113891602,-0.07935542613267899,0.614063024520874,-0.04972279071807861,0.4198707938194275,0.1379653513431549,9.852529525756836,-0.06430532103502513,-0.06997961649655951,-2.735463476932428,0.0,0.0,0.0,0.7837922093051374,-0.6047815727966446,10.336359249268328,0.0
2026/01/04 17:13:04.113625320,0,0,0.41208788752555847,-0.1066838800907135,1.0203065872192383,-0.08543666452169418,0.6343227028846741,-0.0208699069917202,1.5591909885406494,-1.6324267387390137,10.955982208251953,-0.07192142438613745,-0.07109485788711543,-2.73309161397557,0.0,0.0,0.0,0.8738349388923174,-0.7665204807008905,9.814224170044483,0.0
2026/01/04 17:13:04.144517064,0,0,0.4111454486846924,-0.09437204897403717,1.0199002027511597,-0.05459095537662506,0.6227576732635498,-0.020781947299838066,0.9654971361160278,-0.9794679880142212,10.469917297363281,-0.07751490003583239,-0.07076060775255934,-2.7311702245832628,0.0,0.0,0.0,0.7587108674255983,-0.7176145791617754,9.800113513462202,0.0
2026/01/04 17:13:04.175361192,0,0,0.4095388948917389,-0.07012028247117996,1.0196242332458496,-0.046350207179784775,0.6172899603843689,-0.02596687339246273,-0.22183088958263397,0.22047419846057892,9.599230766296387,-0.0866602083282886,-0.07222114405388326,-2.728846776313707,0.0,0.0,0.0,0.7345370856017766,-0.7410820590794702,9.850527787285518,0.0
2026/01/04 17:13:04.204833640,0,0,0.40838563442230225,-0.052101507782936096,1.0196577310562134,-0.06574095040559769,0.6432811617851257,-0.004724803846329451,0.26915162801742554,0.016380755230784416,9.266340255737305,-0.09159149048390965,-0.07010413872487727,-2.7271237329580296,0.0,0.0,0.0,0.7909674340975759,-0.7932952460390534,9.723362364152221,0.0
2026/01/04 17:13:04.233697704,0,0,0.40767282247543335,-0.040140654891729355,1.0196998119354248,-0.058546360582113266,0.6546449661254883,0.004674562253057957,-0.34699293971061707,-1.6220735311508179,9.928979873657227,-0.09532031871741246,-0.06772978011519498,-2.727846016537858,0.0,0.0,0.0,0.7832661544437092,-0.8722077765966023,9.567502952745869,0.0
2026/01/04 17:13:04.265810824,0,0,0.40648648142814636,-0.016514139249920845,1.0197441577911377,-0.05266872048377991,0.6171930432319641,-0.009769910015165806,-1.0349270105361938,-0.680844247341156,9.608331680297852,-0.10199617091520248,-0.06374037054912712,-2.7277155016310206,0.0,0.0,0.0,0.7663421415135669,-0.7820942976668572,9.700141887331286,0.0
2026/01/04 17:13:04.293894952,0,0,0.4056415855884552,0.0008360223146155477,1.019585132598877,-0.07775619626045227,0.6199616193771362,-0.005761225242167711,-0.536683201789856,-0.4864797294139862,9.518548011779785,-0.107297383726263,-0.05868854390897744,-2.7255650770719044,0.0,0.0,0.0,0.8205203648380167,-0.7794698321542582,9.700367023619455,0.0
2026/01/04 17:13:04.325074888,0,0,0.405112087726593,0.012160202488303185,1.0193911790847778,-0.09223780035972595,0.6208634972572327,-0.0018328743753954768,0.5825833082199097,-1.4581540822982788,9.711247444152832,-0.11082656773276522,-0.056518407714012474,-2.7249000729589055,0.0,0.0,0.0,0.9089284294085603,-0.790935239194501,9.630400360945234,0.0
2026/01/04 17:13:04.353924872,0,0,0.40446552634239197,0.02888190746307373,1.0188913345336914,-0.09011156857013702,0.6144243478775024,-0.016225801780819893,1.5773307085037231,-2.3937952518463135,9.957128524780273,-0.11419745143807362,-0.0559289361533585,-2.7243099572163447,0.0,0.0,0.0,0.9035040698911219,-0.7886410988832766,9.767822296184187,0.0
2026/01/04 17:13:04.383577576,0,0,0.40382134914398193,0.05055731162428856,1.0176044702529907,-0.06210557371377945,0.6002973914146423,-0.03706562891602516,1.7854821681976318,-2.797248363494873,9.97957992553711,-0.11614173545085234,-0.059495046241429816,-2.723098285475609,0.0,0.0,0.0,0.8622190132643657,-0.7633619469310436,9.857138792873858,0.0
2026/01/04 17:13:04.413777544,0,0,0.4035637378692627,0.06116507202386856,1.016706109046936,-0.04023301973938942,0.5876883268356323,-0.050086066126823425,1.0060997009277344,-2.483957529067993,9.903307914733887,-0.11715865340167489,-0.06454629989068586,-2.7225043319189313,0.0,0.0,0.0,0.7310484793530153,-0.7013284838692215,10.100692082471916,0.0
2026/01/04 17:13:04.443921800,0,0,0.4033137261867523,0.07667110115289688,1.0151960849761963,-0.01607181876897812,0.5587809085845947,-0.06885604560375214,0.2995462119579315,-1.3446807861328125,9.719987869262695,-0.11897434814513899,-0.07367840493486935,-2.7217542578509595,0.0,0.0,0.0,0.6644799355346283,-0.6382196257936844,10.224149331785755,0.0
2026/01/04 17:13:04.475202760,0,0,0.40308454632759094,0.09673751145601273,1.0129305124282837,-0.0368465781211853,0.5343606472015381,-0.07231879234313965,0.8152618408203125,0.09120423346757889,9.227080345153809,-0.11877217374929726,-0.07838786529689311,-2.7174162067685006,0.0,0.0,0.0,0.6985242791522727,-0.5110963930238083,10.404597395153882,0.0
2026/01/04 17:13:04.504333928,0,0,0.40299075841903687,0.10647520422935486,1.0118385553359985,-0.037997934967279434,0.5471035242080688,-0.057211823761463165,1.341354489326477,-1.2071813344955444,9.843626976013184,-0.11871534519181973,-0.07711889575214134,-2.7149917605982505,0.0,0.0,0.0,0.7250306894866179,-0.5752981397745264,10.21313214418803,0.0
2026/01/04 17:13:04.534573512,0,0,0.4025779366493225,0.1255970448255539,1.0099414587020874,0.004540434572845697,0.5195993185043335,-0.06019725278019905,-0.09622616320848465,-0.7847552299499512,9.899588584899902,-0.11339183943136692,-0.07236001347673572,-2.7141952631461863,0.0,0.0,0.0,0.6530064825177375,-0.5397097097173404,10.201180727905982,0.0
2026/01/04 17:13:04.563609256,0,0,0.40218469500541687,0.13947787880897522,1.0088341236114502,-0.013060306198894978,0.5044126510620117,-0.052101463079452515,-0.8884519934654236,1.4161083698272705,9.142173767089844,-0.10670769875567822,-0.07191897629582066,-2.712341814267143,0.0,0.0,0.0,0.5954027430656137,-0.41258705964498177,10.253310196902698,0.0
2026/01/04 17:13:04.593752424,0,0,0.40184634923934937,0.14857876300811768,1.00812828540802,-0.04055716097354889,0.5221226215362549,-0.03222895786166191,0.10113205015659332,0.49570298194885254,9.440757751464844,-0.10101589235119071,-0.07083395744701398,-2.7103736526318905,0.0,0.0,0.0,0.7375533598616427,-0.46430780857349196,10.018731746355364,0.0
2026/01/04 17:13:04.623759432,0,0,0.40144792199134827,0.16199234127998352,1.007198452949524,-0.05413014069199562,0.5384743809700012,-0.012591316364705563,0.9337249994277954,-1.5094038248062134,10.327712059020996,-0.09444946419002402,-0.07049438263237512,-2.708402548573399,0.0,0.0,0.0,0.7863588457020133,-0.5318844764889902,9.846784275546616,0.0
2026/01/04 17:13:04.657759944,0,0,0.40096476674079895,0.1795084923505783,1.006000280380249,-0.01468737330287695,0.5109419226646423,-0.031142037361860275,0.6970992088317871,-1.1885713338851929,10.305891036987305,-0.08454442998707613,-0.06848718891456824,-2.704995799993102,0.0,0.0,0.0,0.681111831475589,-0.4560392025825798,10.00380538085025,0.0
2026/01/04 17:13:04.685564136,0,0,0.40059036016464233,0.19235239923000336,1.0052310228347778,0.004235331434756517,0.49697601795196533,-0.03719278797507286,-0.9325655698776245,0.24291403591632843,9.57072639465332,-0.07971516040416415,-0.07045843626040434,-2.7022423666755504,0.0,0.0,0.0,0.6210812407384109,-0.4025555101806227,10.04141175023636,0.0
2026/01/04 17:13:04.714939688,0,0,0.40028688311576843,0.20083515346050262,1.0048189163208008,-0.01224703062325716,0.4849696457386017,-0.03294418007135391,-0.8197739124298096,1.6225863695144653,8.924510955810547,-0.07693567032174337,-0.07235404172367776,-2.7003016544770375,0.0,0.0,0.0,0.6428206193054558,-0.3407158819379361,10.057046634605452,0.0
2026/01/04 17:13:04.745188808,0,0,0.3996254503726959,0.21758674085140228,1.0041558742523193,-0.049919381737709045,0.516602635383606,0.0021943848114460707,0.05100793391466141,0.0640949010848999,9.451041221618652,-0.07612979878618419,-0.07141781698688053,-2.6951908868757717,0.0,0.0,0.0,0.7768307074619768,-0.4718586688948844,9.739844232650297,0.0
2026/01/04 17:13:04.773668680,0,0,0.39892497658729553,0.23000942170619965,1.003678798675537,-0.03568734973669052,0.49832555651664734,-0.004460729658603668,0.1697782427072525,-1.2797081470489502,10.341754913330078,-0.07589811522349821,-0.06746291675352742,-2.693099715209792,0.0,0.0,0.0,0.7294176235113905,-0.38545454212172764,9.805722839754445,0.0
2026/01/04 17:13:04.803601960,0,0,0.39842113852500916,0.23827418684959412,1.0034306049346924,-0.025578288361430168,0.48101118206977844,-0.018281128257513046,-0.0005379397189244628,0.5162695646286011,9.411356925964355,-0.07517020285956003,-0.06671927572612382,-2.6908578723079217,0.0,0.0,0.0,0.6953419002153373,-0.3194430043183562,9.935405741711184,0.0
2026/01/04 17:13:04.836395624,0,0,0.3973936438560486,0.2508009672164917,1.003179669380188,-0.024271871894598007,0.4843732714653015,-0.02259323000907898,-0.2733375132083893,1.0575028657913208,8.983756065368652,-0.07138693812527655,-0.06637936568847866,-2.6870187598826223,0.0,0.0,0.0,0.6937530347241366,-0.30869176643918755,9.977517368464223,0.0
2026/01/04 17:13:04.863613544,0,0,0.3959072530269623,0.2675579786300659,1.0029430389404297,-0.046454787254333496,0.5073752999305725,0.0013427861267700791,-0.1184769794344902,-0.12873661518096924,9.454318046569824,-0.06810166837760573,-0.07234287141889101,-2.6849542886280457,0.0,0.0,0.0,0.7419093561616564,-0.3463757262077508,9.83405186558477,0.0
2026/01/04 17:13:04.893735144,0,0,0.3946104943752289,0.28019052743911743,1.0026748180389404,-0.04757670685648918,0.4838358461856842,-0.004182195756584406,0.402845174074173,-0.2643797993659973,9.603890419006348,-0.06569939926952417,-0.07526772526039667,-2.6825807650609015,0.0,0.0,0.0,0.8006726890394483,-0.3354753319510704,9.781963006165627,0.0
2026/01/04 17:13:04.924420328,0,0,0.39321133494377136,0.2928083539009094,1.0023914575576782,-0.03776416927576065,0.468491792678833,-0.022260356694459915,0.5279098749160767,0.3619007170200348,9.423088073730469,-0.06425477016306676,-0.0794631322008653,-2.6775226981544655,0.0,0.0,0.0,0.7552671910550705,-0.2492878622289546,9.923586601766733,0.0
2026/01/04 17:13:04.954980360,0,0,0.3921138644218445,0.30130207538604736,1.0021663904190063,-0.04923826456069946,0.47093406319618225,-0.023684514686465263,1.0913846492767334,-0.13559414446353912,9.524410247802734,-0.0624111804433704,-0.08069177705887598,-2.6744312734701428,0.0,0.0,0.0,0.7969571100832475,-0.263140224731071,9.997303607635539,0.0
2026/01/04 17:13:04.983727592,0,0,0.3903670012950897,0.31420040130615234,1.0018354654312134,-0.0613224022090435,0.47348421812057495,-0.023037733510136604,1.4216262102127075,-0.34180137515068054,9.32126522064209,-0.06019986896916526,-0.0831996312455369,-2.6721628078287574,0.0,0.0,0.0,0.8447388990145069,-0.25100746250855455,9.994579098437189,0.0
2026/01/04 17:13:05.13850888,0,0,0.3885835111141205,0.32717835903167725,1.0014218091964722,-0.06726016104221344,0.48498791456222534,-0.01333994884043932,1.1173768043518066,-1.934475302696228,10.288617134094238,-0.05886055826619251,-0.08472100117268273,-2.6703232097785694,0.0,0.0,0.0,0.8708959138079654,-0.30022866156536804,9.909221941488259,0.0
2026/01/04 17:13:05.45438568,0,0,0.3866523504257202,0.3401893079280853,1.0009397268295288,-0.0821363553404808,0.48661917448043823,-0.0037239931989461184,0.4345913529396057,-1.6720314025878906,10.597637176513672,-0.059707346960560445,-0.08729369213866658,-2.6674297226904202,0.0,0.0,0.0,0.9284616572296372,-0.31467649928088004,9.825263803394119,0.0
2026/01/04 17:13:05.73977896,0,0,0.38459551334381104,0.3533071279525757,1.0006027221679688,-0.09259220957756042,0.48381897807121277,-0.013177321292459965,0.6309202313423157,-1.5089627504348755,10.037500381469727,-0.059767816368171856,-0.08961659097095453,-2.6639685065543297,0.0,0.0,0.0,0.9712888841289676,-0.28429049774589876,9.915570098735456,0.0
2026/01/04 17:13:05.103963816,0,0,0.382370263338089,0.36658334732055664,1.0002927780151367,-0.0966997966170311,0.5110071301460266,0.0002565914473962039,0.45546019077301025,-0.8465993404388428,9.741036415100098,-0.058832929936224666,-0.0926214002411789,-2.6613315344785895,0.0,0.0,0.0,0.9925147883772317,-0.38945128770463994,9.794821538784435,0.0
2026/01/04 17:13:05.135655592,0,0,0.38012009859085083,0.37997132539749146,1.000006079673767,-0.07458285242319107,0.5193389058113098,0.004979797173291445,-0.38509324193000793,-0.7645044326782227,9.986778259277344,-0.060575969612105575,-0.0988168363558057,-2.6592331147093233,0.0,0.0,0.0,0.9219241741399696,-0.3988446329633856,9.754065437484998,0.0
2026/01/04 17:13:05.164624200,0,0,0.37790805101394653,0.3934011161327362,0.9997608661651611,-0.06816449761390686,0.49888813495635986,0.0015088400105014443,0.13880550861358643,0.8465951681137085,9.342885971069336,-0.06622081916020124,-0.10743613200903401,-2.655201505076676,0.0,0.0,0.0,0.9064357499515933,-0.3378959820901908,9.788395000181916,0.0
2026/01/04 17:13:05.193735784,0,0,0.3748493194580078,0.4112284183502197,0.9994279742240906,-0.07603839039802551,0.48043638467788696,-0.014064579270780087,1.73866605758667,0.2801215946674347,9.3828125,-0.0701523759917243,-0.11363186233752315,-2.6477610927697186,0.0,0.0,0.0,0.9264840134548343,-0.24442870582806542,9.957683210099596,0.0
2026/01/04 17:13:05.224041032,0,0,0.3732549250125885,0.4201958179473877,0.9992243647575378,-0.0694781020283699,0.4917491674423218,-0.015378780663013458,1.7312740087509155,-1.4512420892715454,9.72378921508789,-0.07185148990265647,-0.11425880667875589,-2.6457092944395266,0.0,0.0,0.0,0.9247495291632291,-0.3030504869919366,9.949149582821404,0.0
2026/01/04 17:13:05.254706824,0,0,0.3708248436450958,0.4337228536605835,0.9989094138145447,-0.04391637071967125,0.47502949833869934,-0.02367955632507801,-0.12861375510692596,-0.8182346820831299,9.641624450683594,-0.07742250926770221,-0.11744978848848964,-2.6436206865552703,0.0,0.0,0.0,0.8384450418555319,-0.25026389800539917,10.018113901466482,0.0
2026/01/04 17:13:05.284145224,0,0,0.36755990982055664,0.4518376290798187,0.9983585476875305,-0.10676936060190201,0.48587170243263245,-0.0025465560611337423,0.8766385912895203,-1.1818859577178955,9.7429780960083,-0.07997891260889188,-0.1161080446394921,-2.6392480931207216,0.0,0.0,0.0,0.9522898177044569,-0.2227975299196213,9.999862233491653,0.0
2026/01/04 17:13:05.314625096,0,0,0.3658495545387268,0.46089181303977966,0.9981216192245483,-0.11020944267511368,0.4998185932636261,0.008194569498300552,1.3071589469909668,-1.9797017574310303,10.36149787902832,-0.08015070070825761,-0.11147206425726874,-2.6368513954519854,0.0,0.0,0.0,1.089463689532165,-0.3333198193274678,9.742566418864099,0.0
2026/01/04 17:13:05.343573864,0,0,0.3624734580516815,0.4791244864463806,0.9977997541427612,-0.09059417992830276,0.4836409091949463,-0.004680669866502285,0.39363813400268555,-1.3005311489105225,10.311189651489258,-0.08091654712605857,-0.10585409862953354,-2.6316535455294425,0.0,0.0,0.0,1.030871425419762,-0.3013288113471853,9.864273265522653,0.0
2026/01/04 17:13:05.373796456,0,0,0.360833078622818,0.48829060792922974,0.9976606965065002,-0.09177174419164658,0.5004236698150635,-0.0035406406968832016,0.5341845154762268,-1.664703130722046,9.986533164978027,-0.07962784161663819,-0.10339045525823079,-2.6299955554387138,0.0,0.0,0.0,1.0399127969771071,-0.32756559631518817,9.85510807530481,0.0
2026/01/04 17:13:05.403711272,0,0,0.35780978202819824,0.5066613554954529,0.9972703456878662,-0.055112045258283615,0.4953700602054596,-0.008625024929642677,-0.4885697364807129,-0.9560871124267578,9.615035057067871,-0.07787007030876579,-0.10772144015970843,-2.6282424185363453,0.0,0.0,0.0,0.9663157776308557,-0.3468765619707353,9.875471177064362,0.0
2026/01/04 17:13:05.433864168,0,0,0.3564198911190033,0.5158578157424927,0.9970949292182922,-0.04841328039765358,0.4865279495716095,-0.009317302145063877,-0.9190382361412048,1.0284531116485596,9.35102653503418,-0.07981948360327078,-0.11190801095152546,-2.625280088338061,0.0,0.0,0.0,0.9015268210371042,-0.2717612837304011,9.91377942629348,0.0
2026/01/04 17:13:05.465014504,0,0,0.354390025138855,0.5296036005020142,0.9967173933982849,-0.07669436931610107,0.4807809293270111,-0.0022489717230200768,0.32167595624923706,1.4118317365646362,9.018077850341797,-0.08113338569358743,-0.11300457711835085,-2.6208984928693053,0.0,0.0,0.0,1.006761616050527,-0.26304545301127996,9.85229647128679,0.0
2026/01/04 17:13:05.493778024,0,0,0.3524588942527771,0.5431689023971558,0.9963792562484741,-0.06326388567686081,0.4810484051704407,-0.01000442449003458,1.4500126838684082,-1.2848877906799316,10.087966918945312,-0.08209783260682842,-0.11259987637129494,-2.6177413699144947,0.0,0.0,0.0,0.9654290768851841,-0.24455828506246577,9.926998175810448,0.0
2026/01/04 17:13:05.524887560,0,0,0.35032960772514343,0.556784451007843,0.9960424900054932,-0.02527390979230404,0.4452040195465088,-0.03551953658461571,0.7969720959663391,-0.13658635318279266,9.579010009765625,-0.08099676846460653,-0.11140123805104671,-2.6143110749719884,0.0,0.0,0.0,0.8383793349124221,-0.12947689525104789,10.165138064427605,0.0
2026/01/04 17:13:05.553604040,0,0,0.34745296835899353,0.5750357508659363,0.9955905079841614,-0.04789898172020912,0.46547237038612366,-0.021578609943389893,0.8825404644012451,0.10409754514694214,8.973782539367676,-0.07719460951595357,-0.10762737917698965,-2.609992406149938,0.0,0.0,0.0,0.9068645834755522,-0.17676476730218982,10.102903139257473,0.0
2026/01/04 17:13:05.583637736,0,0,0.3454044461250305,0.5888742804527283,0.9952254295349121,-0.04990747198462486,0.47178491950035095,-0.021542757749557495,1.196205735206604,-1.643947720527649,9.779287338256836,-0.07505606938010598,-0.10567071230437272,-2.6096216732004294,0.0,0.0,0.0,0.9388518222211186,-0.23071476472298078,9.966729548011008,0.0
2026/01/04 17:13:05.613635560,0,0,0.3440302610397339,0.5982096195220947,0.9949333071708679,-0.04517223685979843,0.4582000970840454,-0.022321326658129692,0.8920816779136658,-1.096716284751892,9.972430229187012,-0.07430481542301202,-0.1061341016708815,-2.608464436580293,0.0,0.0,0.0,0.9273203291736819,-0.1796374816439931,10.054368026634094,0.0
2026/01/04 17:13:05.644061992,0,0,0.3421160578727722,0.6122433543205261,0.9945914149284363,-0.0678754597902298,0.45569121837615967,-0.017362596467137337,2.0250473022460938,-0.6643131375312805,10.014945983886719,-0.07190701459659116,-0.1061258296395462,-2.604659070362475,0.0,0.0,0.0,1.0123429325904971,-0.18277632422111503,10.01192712562263,0.0
2026/01/04 17:13:05.673841512,0,0,0.3397003710269928,0.630965530872345,0.9943529367446899,-0.06625349819660187,0.482889324426651,-0.0022752743680030107,1.9011945724487305,-2.530526638031006,10.468966484069824,-0.06955198143376255,-0.10661052168340991,-2.603666610642152,0.0,0.0,0.0,1.013893831491855,-0.2741169289950066,9.875244597754591,0.0
2026/01/04 17:13:05.703745384,0,0,0.337943434715271,0.6449385285377502,0.9942713379859924,-0.0363503135740757,0.46304887533187866,-0.011152755469083786,0.14422295987606049,-1.900349736213684,10.114330291748047,-0.06912058689412,-0.1109754986958335,-2.6046348661812697,0.0,0.0,0.0,0.9229344248592736,-0.23870026080007395,9.929639717095904,0.0
2026/01/04 17:13:05.734404168,0,0,0.33690086007118225,0.6541971564292908,0.9941989779472351,-0.05609173700213432,0.4565235674381256,-0.0055247945711016655,-0.06286967545747757,0.012733763083815575,9.554173469543457,-0.06898730892724658,-0.11321981842259958,-2.603046491872211,0.0,0.0,0.0,0.9869445093211423,-0.1617499653484964,9.906683487651613,0.0
2026/01/04 17:13:05.763822952,0,0,0.3347972631454468,0.6725693345069885,0.9940263032913208,-0.1045975312590599,0.492169052362442,0.02749657817184925,0.8717504143714905,-1.1758909225463867,9.901862144470215,-0.07059982697484737,-0.11166117836176868,-2.599404635696174,0.0,0.0,0.0,1.149279967493838,-0.2642291831443607,9.650303285034669,0.0
2026/01/04 17:13:05.793908136,0,0,0.3337869942188263,0.6817330121994019,0.9939544200897217,-0.09170456230640411,0.4948972761631012,0.015655001625418663,1.163697600364685,-2.5259993076324463,10.489288330078125,-0.07164658970432072,-0.10930932113484337,-2.5988104241904386,0.0,0.0,0.0,1.1209716506422078,-0.2887061683952908,9.713896748127574,0.0
2026/01/04 17:13:05.825245576,0,0,0.33230090141296387,0.6955030560493469,0.9936583638191223,-0.04169245809316635,0.4735831022262573,-0.01373402401804924,-0.06655937433242798,-0.81722092628479,9.774115562438965,-0.07163982173395285,-0.10664250406336613,-2.597282698386421,0.0,0.0,0.0,0.9500276466519644,-0.22505677350467268,9.987447608375827,0.0
2026/01/04 17:13:05.855384296,0,0,0.3308945298194885,0.7093217968940735,0.9932536482810974,-0.02640792354941368,0.4709760844707489,-0.02500610426068306,-1.0821443796157837,1.0121465921401978,8.927030563354492,-0.07147314153013347,-0.10843021294014114,-2.595076065956435,0.0,0.0,0.0,0.9007486016423935,-0.2573861450077103,10.09515362886175,0.0
2026/01/04 17:13:05.885291176,0,0,0.3290686309337616,0.7277469635009766,0.9925751090049744,-0.051141511648893356,0.47453275322914124,-0.011991698294878006,-0.6618030667304993,1.0318553447723389,9.001081466674805,-0.07201626520063555,-0.11075488297299858,-2.592749014501582,0.0,0.0,0.0,0.9615779407490921,-0.3111120893974308,10.014361343343129,0.0
2026/01/04 17:13:05.913631720,0,0,0.3277588188648224,0.7415492534637451,0.9920257329940796,-0.05685104802250862,0.48003333806991577,-0.006449002306908369,0.2959807515144348,-0.15780489146709442,9.460016250610352,-0.07261492100391985,-0.10725165838622297,-2.590866163986615,0.0,0.0,0.0,1.0253999066435842,-0.35904509239724475,9.93466534168935,0.0
2026/01/04 17:13:05.943875080,0,0,0.3268474340438843,0.7507186532020569,0.9916318655014038,-0.040893636643886566,0.4746808409690857,-0.008152240887284279,0.10767398029565811,-0.13379964232444763,9.887350082397461,-0.07351714964344108,-0.10434471029297682,-2.5896461558501747,0.0,0.0,0.0,0.964145617134166,-0.39509909401014404,9.955618568537636,0.0
2026/01/04 17:13:05.973961800,0,0,0.3255651295185089,0.7644267082214355,0.9911799430847168,-0.02032458782196045,0.4520353078842163,-0.025505026802420616,-0.10126981884241104,0.7399584054946899,9.652182579040527,-0.0746636557707471,-0.10305408755580506,-2.5879101285255897,0.0,0.0,0.0,0.8958724259177161,-0.3568354593554025,10.119835501148467,0.0
2026/01/04 17:13:06.4082888,0,0,0.3241672217845917,0.7781853675842285,0.9908486008644104,-0.02298356592655182,0.43935027718544006,-0.03040473535656929,0.6999360918998718,1.1060844659805298,9.241081237792969,-0.07339442552768996,-0.10134757036552257,-2.5860173852165107,0.0,0.0,0.0,0.9109444388771729,-0.35528569638969987,10.1688200890427,0.0
2026/01/04 17:13:06.35535848,0,0,0.32292062044143677,0.7918586730957031,0.9906810522079468,-0.024587977677583694,0.4625331461429596,-0.006753341294825077,0.8436346054077148,-0.1747453659772873,9.676363945007324,-0.07428912298423147,-0.10087409600901884,-2.5856855963204985,0.0,0.0,0.0,0.9185952244245156,-0.4757411946647085,9.951825657770542,0.0
2026/01/04 17:13:06.63796616,0,0,0.32178840041160583,0.8054272532463074,0.9905739426612854,-0.005328360479325056,0.44097331166267395,-0.009928666986525059,0.15347164869308472,0.09550895541906357,9.646236419677734,-0.07624387291100215,-0.10138413757040349,-2.586776907761446,0.0,0.0,0.0,0.8547635730441823,-0.4411678631596006,9.98214813425389,0.0
2026/01/04 17:13:06.93709352,0,0,0.32034626603126526,0.8234034776687622,0.9904789924621582,-0.03931181877851486,0.4178469181060791,-0.01125793345272541,0.9757941961288452,0.6327511072158813,9.296368598937988,-0.07855175279347729,-0.10151326158908903,-2.58390967807885,0.0,0.0,0.0,0.9355336710352887,-0.3859732557747525,10.05096554949674,0.0
2026/01/04 17:13:06.124157416,0,0,0.31969916820526123,0.8323284387588501,0.9904574155807495,-0.04700595885515213,0.43287193775177,0.0009765393915586174,2.231605052947998,-0.9104738831520081,10.118812561035156,-0.0804032502777034,-0.10055931468596294,-2.5819628710192117,0.0,0.0,0.0,1.0071823253340701,-0.4937960723645241,9.882808892838396,0.0
2026/01/04 17:13:06.153656200,0,0,0.31878921389579773,0.8456159234046936,0.9904862642288208,-0.0335400365293026,0.4325171709060669,-0.008040211163461208,2.2599127292633057,-2.1908533573150635,10.390129089355469,-0.08199790726997722,-0.0970658263251622,-2.582027271335223,0.0,0.0,0.0,0.9629961026898914,-0.532631484909998,9.96568580663652,0.0
2026/01/04 17:13:06.183700264,0,0,0.31763410568237305,0.8630580902099609,0.9904381036758423,0.004529276397079229,0.3985599875450134,-0.025412170216441154,0.6822317838668823,-0.5726032257080078,9.652650833129883,-0.08381204742741233,-0.09364713534413206,-2.5804581327886686,0.0,0.0,0.0,0.835943192857191,-0.46472124683560656,10.129460849405765,0.0
2026/01/04 17:13:06.213781672,0,0,0.31696683168411255,0.8759175539016724,0.990235447883606,-0.026156438514590263,0.4065314829349518,-0.013760515488684177,0.22841593623161316,0.08667870610952377,9.133341789245605,-0.08443238811557986,-0.09183641897572173,-2.579435585295657,0.0,0.0,0.0,0.8513132095571521,-0.4888130218851335,10.11481969275686,0.0
2026/01/04 17:13:06.244249288,0,0,0.31660905480384827,0.8844274282455444,0.9900714755058289,-0.044120464473962784,0.4079415500164032,-0.005214557982981205,1.1533055305480957,-1.1403326988220215,9.761445045471191,-0.08526235062748165,-0.09178488078603295,-2.5786363257759515,0.0,0.0,0.0,1.0061812668727346,-0.5626645154194115,9.94355956914881,0.0
2026/01/04 17:13:06.273617192,0,0,0.31589165329933167,0.9011644721031189,0.9896127581596375,-0.044935889542102814,0.40293365716934204,-0.00014266293146647513,1.983824372291565,-2.108140707015991,10.557540893554688,-0.08532833341447939,-0.08674590815783523,-2.5759048762061445,0.0,0.0,0.0,1.0502256336550497,-0.5883055476586179,9.892879233974382,0.0
2026/01/04 17:13:06.303643048,0,0,0.3154558539390564,0.9133392572402954,0.9893666505813599,-0.023570075631141663,0.38665497303009033,-0.009514285251498222,1.1986373662948608,-1.7344108819961548,10.689948081970215,-0.08681729669111601,-0.08554280241872823,-2.5739133792431526,0.0,0.0,0.0,0.9701877192202967,-0.5947324406150315,9.914190871849595,0.0
2026/01/04 17:13:06.333712680,0,0,0.3151269555091858,0.9213714599609375,0.9892654418945312,-0.027312027290463448,0.3746901750564575,-0.017993520945310593,1.0235908031463623,-0.43296018242836,9.410872459411621,-0.08608413195782356,-0.08414770855673726,-2.5732641550911595,0.0,0.0,0.0,0.9523446598466864,-0.557663423437993,10.069250847087087,0.0
2026/01/04 17:13:06.365511144,0,0,0.31463974714279175,0.9370678663253784,0.9891805052757263,-0.05117286369204521,0.3960390090942383,0.01614518091082573,1.2053571939468384,-1.7209750413894653,10.046049118041992,-0.08759964515951112,-0.08551244045082232,-2.571983142151835,0.0,0.0,0.0,0.997586551224778,-0.6334794437791379,9.86241433360425,0.0
2026/01/04 17:13:06.394489032,0,0,0.31435373425483704,0.9485191702842712,0.9891538023948669,-0.04273819550871849,0.3838016986846924,0.019535990431904793,0.48594141006469727,-2.2238502502441406,10.724108695983887,-0.08997139030775302,-0.08721300011529307,-2.5721944580794527,0.0,0.0,0.0,1.0433424467700743,-0.6979488713401153,9.688889404226854,0.0
2026/01/04 17:13:06.425356328,0,0,0.31423330307006836,0.9560325741767883,0.9892058968544006,-0.0360114723443985,0.3642584979534149,0.010936013422906399,0.24629689753055573,-0.9551829695701599,10.323914527893066,-0.09247802237158796,-0.08848192762051375,-2.5706687189259227,0.0,0.0,0.0,0.98535283474998,-0.6250150561220651,9.803052658858252,0.0
2026/01/04 17:13:06.455305992,0,0,0.31398069858551025,0.9671483039855957,0.9893563985824585,-0.04607950523495674,0.37703168392181396,0.015437982976436615,0.5487744808197021,-0.6829253435134888,9.786436080932617,-0.09515751889231881,-0.08761321947904495,-2.5671971523305466,0.0,0.0,0.0,1.0211060888963681,-0.7028257220136437,9.760101950251,0.0
2026/01/04 17:13:06.484841384,0,0,0.3137425482273102,0.9780631065368652,0.9894779324531555,-0.031283341348171234,0.3850557208061218,0.01278663519769907,0.18319100141525269,-0.9764153361320496,9.522220611572266,-0.09818648385237233,-0.08778804643283465,-2.5666544645182903,0.0,0.0,0.0,0.9707855174020928,-0.7644058097974037,9.783370766396468,0.0
2026/01/04 17:13:06.513693864,0,0,0.3135024905204773,0.9922448992729187,0.9895300269126892,0.018377844244241714,0.3520805835723877,-0.0008791950531303883,-0.30632027983665466,0.2664000988006592,9.359667778015137,-0.10237024241504797,-0.0876070145511985,-2.56453772943296,0.0,0.0,0.0,0.8876211392347532,-0.7312485528018663,9.874883478028352,0.0
2026/01/04 17:13:06.543998664,0,0,0.3134382963180542,0.9991260170936584,0.9894739389419556,0.01217498630285263,0.32685554027557373,-0.011218374595046043,-0.12014177441596985,1.2359707355499268,8.98555850982666,-0.10368016728879338,-0.08674404149696284,-2.562745846077978,0.0,0.0,0.0,0.8189246815688719,-0.6232244648284596,10.00470093329565,0.0
2026/01/04 17:13:06.573656296,0,0,0.31314364075660706,1.0125197172164917,0.9892413020133972,-0.03347492590546608,0.3123243749141693,-0.0031760947313159704,1.9511257410049438,-0.5736095905303955,9.93411922454834,-0.10593694401522986,-0.08019347402785047,-2.5588592356179394,0.0,0.0,0.0,0.9598631762027531,-0.6132776587515435,9.95551516226317,0.0
2026/01/04 17:13:06.604851144,0,0,0.3130135238170624,1.0190938711166382,0.9891451597213745,-0.029951244592666626,0.3138652741909027,-0.004998038988560438,2.8040544986724854,-2.5820014476776123,10.583329200744629,-0.1050994981448685,-0.07493748131123411,-2.557232648927445,0.0,0.0,0.0,0.9872385556776729,-0.6267091127265473,9.937160394634011,0.0
2026/01/04 17:13:06.635394152,0,0,0.3126813769340515,1.0318189859390259,0.9889848828315735,0.009868957102298737,0.2975468337535858,-0.014845745638012886,0.4312330484390259,-1.8664804697036743,10.067084312438965,-0.1027851797840997,-0.06800237958163571,-2.556556510815759,0.0,0.0,0.0,0.8424954128942256,-0.6330020983448562,10.022034977836768,0.0
2026/01/04 17:13:06.665469544,0,0,0.31243008375167847,1.0410804748535156,0.9889441132545471,-0.03349673002958298,0.2833760380744934,-0.003788851900026202,-0.07505524158477783,-0.6128395199775696,9.676919937133789,-0.09879899105984703,-0.06767871053602091,-2.5559398399637985,0.0,0.0,0.0,0.8963089067252512,-0.6008769191750991,10.011183314808635,0.0
2026/01/04 17:13:06.693689544,0,0,0.3121812641620636,1.050084114074707,0.9890428781509399,-0.06782860308885574,0.3049207627773285,0.030386729165911674,0.9885089993476868,-1.0853396654129028,10.05921745300293,-0.09757017091105594,-0.06657136808033488,-2.551976515747298,0.0,0.0,0.0,1.0884233471979206,-0.653131744288313,9.70238155278033,0.0
2026/01/04 17:13:06.724131048,0,0,0.3119899034500122,1.0588117837905884,0.9892024993896484,-0.03230402246117592,0.3051269054412842,0.0181095153093338,0.756935179233551,-2.1976261138916016,10.424095153808594,-0.0966064708067757,-0.06595394723914827,-2.5500372650160306,0.0,0.0,0.0,1.0633844994152113,-0.7411951630705689,9.649373983873105,0.0
2026/01/04 17:13:06.753981928,0,0,0.3119456470012665,1.0672593116760254,0.9894258379936218,0.024126799777150154,0.2660406231880188,-0.0029774310532957315,-0.5681997537612915,0.4129762351512909,9.445171356201172,-0.09603819980606798,-0.07212124259515787,-2.547729730668662,0.0,0.0,0.0,0.8278278815746857,-0.6470157046243673,9.909839375038294,0.0
2026/01/04 17:13:06.783610760,0,0,0.3118772506713867,1.0752642154693604,0.9896811842918396,0.005675619468092918,0.23590587079524994,-0.0065842727199196815,-0.36223700642585754,1.795000433921814,8.867902755737305,-0.09535630517229832,-0.07811416732681656,-2.543019371001364,0.0,0.0,0.0,0.796291498490503,-0.5642185391344505,9.953873297247046,0.0
2026/01/04 17:13:06.813732264,0,0,0.31168612837791443,1.0829355716705322,0.9898619651794434,-0.03935622796416283,0.22887323796749115,0.004075729288160801,1.9303709268569946,-0.589913547039032,9.66248893737793,-0.0959973306984023,-0.08122162894076183,-2.5384461008141486,0.0,0.0,0.0,0.9712365043057943,-0.5359231382502633,9.861674805208002,0.0
2026/01/04 17:13:06.843688872,0,0,0.31154730916023254,1.0903502702713013,0.9900026917457581,-0.04562077671289444,0.24200594425201416,0.013250820338726044,2.732891082763672,-2.5576229095458984,10.444195747375488,-0.0963692862264241,-0.07803674700714723,-2.5355338340295015,0.0,0.0,0.0,1.0268853315527746,-0.5424304392750146,9.807315255663262,0.0
2026/01/04 17:13:06.873563080,0,0,0.3113982677459717,1.0950454473495483,0.990081250667572,-0.01214237418025732,0.23757344484329224,0.0030715293250977993,0.6778550148010254,-2.481656312942505,10.164956092834473,-0.09657144796324496,-0.07574518320016985,-2.5352819371300384,0.0,0.0,0.0,-0.873294012226709,-2.318927035610042,9.867163591061594,0.0
2026/01/04 17:13:06.904756616,0,0,0.3107509911060333,1.1041760444641113,0.9904525279998779,-0.041710659861564636,0.22067879140377045,0.028954677283763885,-0.2582891881465912,1.635048747062683,9.401483535766602,-0.0944271125508174,-0.06773312014561451,-2.530318453057183,0.0,0.0,0.0,-0.811296793301899,-2.2848100628265744,9.814355215700395,0.0
2026/01/04 17:13:06.933616520,0,0,0.31018978357315063,1.108314871788025,0.9909659028053284,-0.03171716630458832,0.18791161477565765,0.022581618279218674,0.8500500917434692,0.0724378228187561,9.513106346130371,-0.09583402441302104,-0.05025374243209439,-2.5273566168613173,0.0,0.0,0.0,-0.8919419799001757,-2.185181782712162,9.678677466097112,0.0
2026/01/04 17:13:06.964105352,0,0,0.3082110285758972,1.1156026124954224,0.9924218654632568,-0.13240006566047668,0.17460954189300537,0.06745409965515137,1.2592144012451172,-2.6744871139526367,11.16600227355957,-0.10046503087517766,0.023072413563711522,-2.52273548127436,0.0,0.0,0.0,-0.6637605638023474,-2.0944530286647978,9.464576080895366,0.0
2026/01/04 17:13:06.994045384,0,0,0.3068792223930359,1.1185592412948608,0.9932398796081543,-0.09381911158561707,0.1418544203042984,0.04991428181529045,0.6672929525375366,-0.09134066104888916,9.90781307220459,-0.10649879018296055,0.06785002891301539,-2.5204347153086264,0.0,0.0,0.0,-0.7540732376340386,-2.0546891292349603,9.404631958649036,0.0
2026/01/04 17:13:07.23907336,0,0,0.3042747378349304,1.122093915939331,0.9946529269218445,-0.08946172893047333,0.0696992501616478,0.029393061995506287,-0.004953446332365274,-0.3978852927684784,9.830626487731934,-0.10933821977637552,0.13382362882588683,-2.5153633410607528,0.0,0.0,0.0,-0.8589599361413288,-1.8428044233639107,9.662475981693689,0.0
2026/01/04 17:13:07.55765448,0,0,0.3009859621524811,1.1246167421340942,0.9961914420127869,-0.18356433510780334,0.06535043567419052,0.06945891678333282,1.810449481010437,-2.9075188636779785,11.217650413513184,-0.119957491455274,0.18581700973893403,-2.5151217422126257,0.0,0.0,0.0,-0.4805486610081497,-1.8048394029504897,9.196071918200234,0.0
